ID,contactDetails,country,description,endDate,function,latitude,locality,longitude,name,postCode,sourceRecordLink,startDate,state,type,url,warning
CRSH0003,,England,"Leicester Square is a pedestrianised square in the West End of London, England. It was laid out in 1670 as Leicester Fields, which was named after the recently built Leicester House, itself named after Robert Sidney, 2nd Earl of Leicester. The square was originally a gentrified residential area, with tenants including Frederick, Prince of Wales and the artists William Hogarth and Joshua Reynolds. It became more down-market in the late 18th century as Leicester House was demolished and retail developments took place, becoming a centre for entertainment. Several major theatres were built in the 19th century, which were converted to cinemas towards the middle of the next. Leicester Square is the location of nationally significant cinemas such as the Odeon Leicester Square, Empire, Leicester Square, which are often used for film premieres (and the now closed Odeon West End). The nearby Prince Charles Cinema is known for its screenings of cult films and marathon film runs. The square remains a tourist attraction which hosts events, including for the Chinese New Year.",,,51.5104,London West End,-0.1301,Leicester Square,WC2H,https://en.wikipedia.org/wiki/Leicester_Square,1670,,Park; Entertainment Centre,,
IASNO,,Canada,Province - Alberta,,,52.7086111,,-117.9111111,16 1/2 Mile Lake,,https://natural-resources.canada.ca/earth-sciences/geography/download-geographical-names-data/9245,,,,,
IASKY,,Canada,Province - Alberta,,,56.7513889,,-110.525,3 Channels Area,,https://natural-resources.canada.ca/earth-sciences/geography/download-geographical-names-data/9246,,,,,
IASLL,,Canada,Province - Alberta,,,56.305,,-110.8905556,49 Lake,,https://natural-resources.canada.ca/earth-sciences/geography/download-geographical-names-data/9247,,,,,
IASLJ,,Canada,Province - Alberta,,,56.3138889,,-110.9436111,51 Lake,,https://natural-resources.canada.ca/earth-sciences/geography/download-geographical-names-data/9248,,,,,
IASLM,,Canada,Province - Alberta,,,56.3522222,,-110.9894444,54 Lake,,https://natural-resources.canada.ca/earth-sciences/geography/download-geographical-names-data/9249,,,,,
IASLK,,Canada,Province - Alberta,,,56.3661111,,-110.9938889,55 Lake,,https://natural-resources.canada.ca/earth-sciences/geography/download-geographical-names-data/9250,,,,,
IBACK,,Canada,Province - Alberta,,,59.525278,,-111.476111,ɂejere K'elni Kųe 196I,,https://natural-resources.canada.ca/earth-sciences/geography/download-geographical-names-data/9251,,,,,
IASTP,,Canada,Province - Alberta,,,57.7605555,,-112.5772222,A-H Lake,,https://natural-resources.canada.ca/earth-sciences/geography/download-geographical-names-data/9252,,,,,
IAPUX,,Canada,Province - Alberta,,,51.05,,-114.93333,Abbeydale,,https://natural-resources.canada.ca/earth-sciences/geography/download-geographical-names-data/9253,,,,,
IAPUY,,Canada,Province - Alberta,,,51.3638889,,-116.2872222,Abbot Pass,,https://natural-resources.canada.ca/earth-sciences/geography/download-geographical-names-data/9254,,,,,
IATZR,,Canada,Province - Alberta,,,51.363611,,-116.28917,Abbot Pass Refuge Cabin National Historic Site of Canada,,https://natural-resources.canada.ca/earth-sciences/geography/download-geographical-names-data/9255,,,,,
IAPVA,,Canada,Province - Alberta,,,53.9172223,,-118.9980556,Abbott Creek,,https://natural-resources.canada.ca/earth-sciences/geography/download-geographical-names-data/9256,,,,,
IAPUZ,,Canada,Province - Alberta,,,53.566667,,-113.38333,Abbottsfield,,https://natural-resources.canada.ca/earth-sciences/geography/download-geographical-names-data/9257,,,,,
IAECP,,Canada,Province - Alberta,,,54.2377778,,-113.0277778,Abee,,https://natural-resources.canada.ca/earth-sciences/geography/download-geographical-names-data/9258,,,,,
IAQVM,,Canada,Province - Alberta,,,51.3847223,,-116.2430556,Aberdeen Glacier,,https://natural-resources.canada.ca/earth-sciences/geography/download-geographical-names-data/9259,,,,,
IAPVD,,Canada,Province - Alberta,,,54.1083333,,-111.4861111,Abilene,,https://natural-resources.canada.ca/earth-sciences/geography/download-geographical-names-data/9260,,,,,
IAECR,,Canada,Province - Alberta,,,52.2236111,,-116.4272222,Abraham Lake,,https://natural-resources.canada.ca/earth-sciences/geography/download-geographical-names-data/9261,,,,,
IAPVF,,Canada,Province - Alberta,,,50.8566667,,-114.0402778,Academy,,https://natural-resources.canada.ca/earth-sciences/geography/download-geographical-names-data/9262,,,,,
IAPVH,,Canada,Province - Alberta,,,51.2,,-110.4,Acadia,,https://natural-resources.canada.ca/earth-sciences/geography/download-geographical-names-data/9263,,,,,
IAPVG,,Canada,Province - Alberta,,,50.966667,,-114.05,Acadia,,https://natural-resources.canada.ca/earth-sciences/geography/download-geographical-names-data/9264,,,,,
IAPVI,,Canada,Province - Alberta,,,51.1569445,,-110.2097222,Acadia Valley,,https://natural-resources.canada.ca/earth-sciences/geography/download-geographical-names-data/9265,,,,,
IAPVJ,,Canada,Province - Alberta,,,53.5502778,,-113.7747222,Acheson,,https://natural-resources.canada.ca/earth-sciences/geography/download-geographical-names-data/9266,,,,,
IAPVO,,Canada,Province - Alberta,,,51.4972222,,-113.5086111,Acme,,https://natural-resources.canada.ca/earth-sciences/geography/download-geographical-names-data/9267,,,,,
IAECS,,Canada,Province - Alberta,,,59.0769444,,-117.7330556,Adair Creek,,https://natural-resources.canada.ca/earth-sciences/geography/download-geographical-names-data/9268,,,,,
IAPVL,,Canada,Province - Alberta,,,49.9744444,,-114.1566667,Adair Creek,,https://natural-resources.canada.ca/earth-sciences/geography/download-geographical-names-data/9269,,,,,
IAPVM,,Canada,Province - Alberta,,,53.6911111,,-118.5530556,Adams Creek,,https://natural-resources.canada.ca/earth-sciences/geography/download-geographical-names-data/9270,,,,,
IAPVN,,Canada,Province - Alberta,,,55.2138889,,-115.3472222,Adams Creek,,https://natural-resources.canada.ca/earth-sciences/geography/download-geographical-names-data/9271,,,,,
IAPVP,,Canada,Province - Alberta,,,53.7472223,,-118.6916667,Adams Creek Trail,,https://natural-resources.canada.ca/earth-sciences/geography/download-geographical-names-data/9272,,,,,
IBACW,,Canada,Province - Alberta,,,52.0683333,,-114.4847222,Adams Lake,,https://natural-resources.canada.ca/earth-sciences/geography/download-geographical-names-data/9273,,,,,
IAECT,,Canada,Province - Alberta,,,58.3894444,,-115.0769444,Adams Landing,,https://natural-resources.canada.ca/earth-sciences/geography/download-geographical-names-data/9274,,,,,
IAPVQ,,Canada,Province - Alberta,,,53.7258333,,-118.5680556,Adams Lookout,,https://natural-resources.canada.ca/earth-sciences/geography/download-geographical-names-data/9275,,,,,
IAPVR,,Canada,Province - Alberta,,,53.6152778,,-112.9258333,Adamson Lake,,https://natural-resources.canada.ca/earth-sciences/geography/download-geographical-names-data/9276,,,,,
IAPVS,,Canada,Province - Alberta,,,54.133333,,-119.35,Adelade Creek,,https://natural-resources.canada.ca/earth-sciences/geography/download-geographical-names-data/9277,,,,,
IAPVT,,Canada,Province - Alberta,,,49.0247222,,-111.2986111,Aden,,https://natural-resources.canada.ca/earth-sciences/geography/download-geographical-names-data/9278,,,,,
IAPVV,,Canada,Province - Alberta,,,53.8538889,,-119.0633333,Adolphus Creek,,https://natural-resources.canada.ca/earth-sciences/geography/download-geographical-names-data/9279,,,,,
IAPVW,,Canada,Province - Alberta,,,53.1711111,,-119.1177778,Adolphus Lake,,https://natural-resources.canada.ca/earth-sciences/geography/download-geographical-names-data/9280,,,,,
IAPVY,,Canada,Province - Alberta,,,53.1141667,,-113.1458333,Adrian Lake,,https://natural-resources.canada.ca/earth-sciences/geography/download-geographical-names-data/9281,,,,,
IAQPP,,Canada,Province - Alberta,,,57.1852778,,-120.0013889,Adskwatim Creek,,https://natural-resources.canada.ca/earth-sciences/geography/download-geographical-names-data/9282,,,,,
IAPWA,,Canada,Province - Alberta,,,51.4180556,,-112.6213889,Aerial,,https://natural-resources.canada.ca/earth-sciences/geography/download-geographical-names-data/9283,,,,,
IAPWB,,Canada,Province - Alberta,,,49.1338889,,-113.24,Aetna,,https://natural-resources.canada.ca/earth-sciences/geography/download-geographical-names-data/9284,,,,,
IAPWE,,Canada,Province - Alberta,,,49.1716666,,-113.1930556,Aetna Creek,,https://natural-resources.canada.ca/earth-sciences/geography/download-geographical-names-data/9285,,,,,
IAPWF,,Canada,Province - Alberta,,,54.4344444,,-110.1697222,African Lake,,https://natural-resources.canada.ca/earth-sciences/geography/download-geographical-names-data/9286,,,,,
IAPWG,,Canada,Province - Alberta,,,52.2997222,,-116.9863889,Afternoon Peak,,https://natural-resources.canada.ca/earth-sciences/geography/download-geographical-names-data/9287,,,,,
IAPWH,,Canada,Province - Alberta,,,58.2208333,,-110.1647222,Agar Lake,,https://natural-resources.canada.ca/earth-sciences/geography/download-geographical-names-data/9288,,,,,
IAPWI,,Canada,Province - Alberta,,,50.1483334,,-111.3038889,Agatha,,https://natural-resources.canada.ca/earth-sciences/geography/download-geographical-names-data/9289,,,,,
IAPWJ,,Canada,Province - Alberta,,,55.4513889,,-116.6416667,Aggie,,https://natural-resources.canada.ca/earth-sciences/geography/download-geographical-names-data/9290,,,,,
IAPWK,,Canada,Province - Alberta,,,54.9133333,,-114.9680556,Agnes Lake,,https://natural-resources.canada.ca/earth-sciences/geography/download-geographical-names-data/9291,,,,,
IAQFM,,Canada,Province - Alberta,,,55.8077778,,-112.5244444,Agnes Lake,,https://natural-resources.canada.ca/earth-sciences/geography/download-geographical-names-data/9292,,,,,
IASYF,,Canada,Province - Alberta,,,56.9047222,,-113.6280556,Aguhway Lake,,https://natural-resources.canada.ca/earth-sciences/geography/download-geographical-names-data/9293,,,,,
IAQFQ,,Canada,Province - Alberta,,,51.805,,-116.6680556,Aiguille Peak,,https://natural-resources.canada.ca/earth-sciences/geography/download-geographical-names-data/9294,,,,,
IAQFR,,Canada,Province - Alberta,,,51.2922222,,-114.0141667,Airdrie,,https://natural-resources.canada.ca/earth-sciences/geography/download-geographical-names-data/9295,,,,,
IAQFS,,Canada,Province - Alberta,,,49.0238889,,-114.0347222,Akamina Lake,,https://natural-resources.canada.ca/earth-sciences/geography/download-geographical-names-data/9296,,,,,
IAQFT,,Canada,Province - Alberta,,,49.0244445,,-114.0544444,Akamina Pass,,https://natural-resources.canada.ca/earth-sciences/geography/download-geographical-names-data/9297,,,,,
IAQFU,,Canada,Province - Alberta,,,53.475,,-111.8416667,Akasu Hill,,https://natural-resources.canada.ca/earth-sciences/geography/download-geographical-names-data/9298,,,,,
IAQFV,,Canada,Province - Alberta,,,53.5094444,,-111.8230556,Akasu Lake,,https://natural-resources.canada.ca/earth-sciences/geography/download-geographical-names-data/9299,,,,,
IAQFW,,Canada,Province - Alberta,,,53.6022222,,-113.2355556,Akenside,,https://natural-resources.canada.ca/earth-sciences/geography/download-geographical-names-data/9300,,,,,
IATUT,,Canada,Province - Alberta,,,53.629167,,-113.59167,Akinsdale,,https://natural-resources.canada.ca/earth-sciences/geography/download-geographical-names-data/9301,,,,,
IAQFX,,Canada,Province - Alberta,,,54.9025,,-114.3605556,Akuinu River,,https://natural-resources.canada.ca/earth-sciences/geography/download-geographical-names-data/9302,,,,,
IAQFY,,Canada,Province - Alberta,,,52.7713889,,-110.4347222,Alba Lake,,https://natural-resources.canada.ca/earth-sciences/geography/download-geographical-names-data/9303,,,,,
IAQGE,,Canada,Province - Alberta,,,53.1669444,,-110.45,Albert Lake,,https://natural-resources.canada.ca/earth-sciences/geography/download-geographical-names-data/9304,,,,,
IAQGG,,Canada,Province - Alberta,,,51.0383333,,-113.9988889,Albert Park,,https://natural-resources.canada.ca/earth-sciences/geography/download-geographical-names-data/9305,,,,,
IAQFZ,,Canada,Province - Alberta,,,54.991667,,-114.376667,Alberta,,https://natural-resources.canada.ca/earth-sciences/geography/download-geographical-names-data/9306,,,,,
IASMB,,Canada,Province - Alberta,,,53.566667,,-113.48333,Alberta Avenue,,https://natural-resources.canada.ca/earth-sciences/geography/download-geographical-names-data/9307,,,,,
IAQGA,,Canada,Province - Alberta,,,53.6780555,,-114.3511111,Alberta Beach,,https://natural-resources.canada.ca/earth-sciences/geography/download-geographical-names-data/9308,,,,,
IATST,,Canada,Province - Alberta,,,53.566667,,-113.59722,Alberta Park Industrial,,https://natural-resources.canada.ca/earth-sciences/geography/download-geographical-names-data/9309,,,,,
IAQGD,,Canada,Province - Alberta,,,53.7994445,,-119.0525,Albertine Creek,,https://natural-resources.canada.ca/earth-sciences/geography/download-geographical-names-data/9310,,,,,
IAQGJ,,Canada,Province - Alberta,,,55.2658333,,-119.4972222,Albright,,https://natural-resources.canada.ca/earth-sciences/geography/download-geographical-names-data/9311,,,,,
IAQGK,,Canada,Province - Alberta,,,55.4869444,,-120.0011111,Albright Creek,,https://natural-resources.canada.ca/earth-sciences/geography/download-geographical-names-data/9312,,,,,
IAQGL,,Canada,Province - Alberta,,,55.4894444,,-119.8216667,Albright Lake,,https://natural-resources.canada.ca/earth-sciences/geography/download-geographical-names-data/9313,,,,,
IAQGM,,Canada,Province - Alberta,,,53.8930556,,-113.8380556,Alcomdale,,https://natural-resources.canada.ca/earth-sciences/geography/download-geographical-names-data/9314,,,,,
IAQGO,,Canada,Province - Alberta,,,52.6133333,,-118.2311111,Alcove Mountain,,https://natural-resources.canada.ca/earth-sciences/geography/download-geographical-names-data/9315,,,,,
IAQGN,,Canada,Province - Alberta,,,53.5119444,,-110.0666667,Alcurve,,https://natural-resources.canada.ca/earth-sciences/geography/download-geographical-names-data/9316,,,,,
IAQGP,,Canada,Province - Alberta,,,52.9330556,,-114.9569444,Alder Flats,,https://natural-resources.canada.ca/earth-sciences/geography/download-geographical-names-data/9317,,,,,
IATTI,,Canada,Province - Alberta,,,53.516667,,-113.50139,Aldergrove,,https://natural-resources.canada.ca/earth-sciences/geography/download-geographical-names-data/9318,,,,,
IAQGQ,,Canada,Province - Alberta,,,50.2830555,,-111.3452778,Alderson,,https://natural-resources.canada.ca/earth-sciences/geography/download-geographical-names-data/9319,,,,,
IABFL,,Canada,Province - Alberta,,,49.0447222,,-113.97,Alderson Creek,,https://natural-resources.canada.ca/earth-sciences/geography/download-geographical-names-data/9320,,,,,
IAQGR,,Canada,Province - Alberta,,,49.0297222,,-113.9761111,Alderson Lake,,https://natural-resources.canada.ca/earth-sciences/geography/download-geographical-names-data/9321,,,,,
IAQGT,,Canada,Province - Alberta,,,50.6761111,,-113.8788889,Aldersyde,,https://natural-resources.canada.ca/earth-sciences/geography/download-geographical-names-data/9322,,,,,
IAQGZ,,Canada,Province - Alberta,,,56.115,,-118.3425,Alex Lake,,https://natural-resources.canada.ca/earth-sciences/geography/download-geographical-names-data/9323,,,,,
IATLN,,Canada,Province - Alberta,,,53.8033333,,-113.9186111,Alexander,,https://natural-resources.canada.ca/earth-sciences/geography/download-geographical-names-data/9324,,,,,
IAUBO,,Canada,Province - Alberta,,,53.8113889,,-113.9602778,Alexander 134,,https://natural-resources.canada.ca/earth-sciences/geography/download-geographical-names-data/9325,,,,,
IZAAH,,Canada,Province - Alberta,,,54.28615,,-116.450092,Alexander 134a,,https://natural-resources.canada.ca/earth-sciences/geography/download-geographical-names-data/9326,,,,,
IZAAI,,Canada,Province - Alberta,,,54.3420082,,-114.8120155,Alexander 134b,,https://natural-resources.canada.ca/earth-sciences/geography/download-geographical-names-data/9327,,,,,
IAQMZ,,Canada,Province - Alberta,,,52.6975,,-111.0927778,Alexander Gate,,https://natural-resources.canada.ca/earth-sciences/geography/download-geographical-names-data/9328,,,,,
IAQGU,,Canada,Province - Alberta,,,57.1472223,,-111.6141667,Alexander Island,,https://natural-resources.canada.ca/earth-sciences/geography/download-geographical-names-data/9329,,,,,
IAQGV,,Canada,Province - Alberta,,,59.6236111,,-110.4802778,Alexander Lake,,https://natural-resources.canada.ca/earth-sciences/geography/download-geographical-names-data/9330,,,,,
IAQGW,,Canada,Province - Alberta,,,51.9852778,,-117.1483333,Alexandra Glaciers,,https://natural-resources.canada.ca/earth-sciences/geography/download-geographical-names-data/9331,,,,,
IABFM,,Canada,Province - Alberta,,,52.0677778,,-116.9297222,Alexandra River,,https://natural-resources.canada.ca/earth-sciences/geography/download-geographical-names-data/9332,,,,,
IATYW,,Canada,Province - Alberta,,,53.7488889,,-114.4863889,Alexis,,https://natural-resources.canada.ca/earth-sciences/geography/download-geographical-names-data/9333,,,,,
IAUBP,,Canada,Province - Alberta,,,53.7333334,,-114.4833333,Alexis 133,,https://natural-resources.canada.ca/earth-sciences/geography/download-geographical-names-data/9334,,,,,
IAUFN,,Canada,Province - Alberta,,,52.8541667,,-116.9722222,Alexis Cardinal River 234,,https://natural-resources.canada.ca/earth-sciences/geography/download-geographical-names-data/9335,,,,,
IAUFM,,Canada,Province - Alberta,,,52.9236111,,-116.5494444,Alexis Elk River 233,,https://natural-resources.canada.ca/earth-sciences/geography/download-geographical-names-data/9336,,,,,
IAUBC,,Canada,Province - Alberta,,,54.225,,-115.8169,Alexis Whitecourt 232,,https://natural-resources.canada.ca/earth-sciences/geography/download-geographical-names-data/9337,,,,,
IABFG,,Canada,Province - Alberta,,,52.4752778,,-115.7830556,Alexo,,https://natural-resources.canada.ca/earth-sciences/geography/download-geographical-names-data/9338,,,,,
IABFH,,Canada,Province - Alberta,,,52.0847222,,-114.8805556,Alford Creek,,https://natural-resources.canada.ca/earth-sciences/geography/download-geographical-names-data/9339,,,,,
IABFI,,Canada,Province - Alberta,,,52.066667,,-115.08333,Alford Lake,,https://natural-resources.canada.ca/earth-sciences/geography/download-geographical-names-data/9340,,,,,
IABFJ,,Canada,Province - Alberta,,,51.4733333,,-115.9363889,Alfred Lake,,https://natural-resources.canada.ca/earth-sciences/geography/download-geographical-names-data/9341,,,,,
IAECW,,Canada,Province - Alberta,,,56.3116667,,-112.2922222,Algar Lake,,https://natural-resources.canada.ca/earth-sciences/geography/download-geographical-names-data/9342,,,,,
IAECX,,Canada,Province - Alberta,,,56.5486111,,-112.1941667,Algar River,,https://natural-resources.canada.ca/earth-sciences/geography/download-geographical-names-data/9343,,,,,
IABFN,,Canada,Province - Alberta,,,52.3430556,,-114.6725,Alhambra,,https://natural-resources.canada.ca/earth-sciences/geography/download-geographical-names-data/9344,,,,,
IABFO,,Canada,Province - Alberta,,,58.2980556,,-113.2086111,Alice Creek,,https://natural-resources.canada.ca/earth-sciences/geography/download-geographical-names-data/9345,,,,,
IABFQ,,Canada,Province - Alberta,,,53.2372223,,-111.5591667,Alice Lake,,https://natural-resources.canada.ca/earth-sciences/geography/download-geographical-names-data/9346,,,,,
IABFR,,Canada,Province - Alberta,,,52.3999999,,-113.1797221,Alix,,https://natural-resources.canada.ca/earth-sciences/geography/download-geographical-names-data/9347,,,,,
IABFS,,Canada,Province - Alberta,,,52.3941667,,-113.1969444,Alix Lake,,https://natural-resources.canada.ca/earth-sciences/geography/download-geographical-names-data/9348,,,,,
IABFT,,Canada,Province - Alberta,,,52.37,,-113.21,Alix South Junction,,https://natural-resources.canada.ca/earth-sciences/geography/download-geographical-names-data/9349,,,,,
IABFU,,Canada,Province - Alberta,,,50.8638889,,-110.4966667,Alkali Creek,,https://natural-resources.canada.ca/earth-sciences/geography/download-geographical-names-data/9350,,,,,
IABFV,,Canada,Province - Alberta,,,51.016667,,-112.18333,Alkali Lake,,https://natural-resources.canada.ca/earth-sciences/geography/download-geographical-names-data/9351,,,,,
IABFW,,Canada,Province - Alberta,,,53.5486111,,-111.7666667,Alkali Lake,,https://natural-resources.canada.ca/earth-sciences/geography/download-geographical-names-data/9352,,,,,
IABFY,,Canada,Province - Alberta,,,54.9386111,,-116.0619444,Allan Lake,,https://natural-resources.canada.ca/earth-sciences/geography/download-geographical-names-data/9353,,,,,
IABGB,,Canada,Province - Alberta,,,54.9069445,,-114.775,Allan River,,https://natural-resources.canada.ca/earth-sciences/geography/download-geographical-names-data/9354,,,,,
IABGC,,Canada,Province - Alberta,,,54.1855556,,-111.4530556,Allday Lake,,https://natural-resources.canada.ca/earth-sciences/geography/download-geographical-names-data/9355,,,,,
IABGD,,Canada,Province - Alberta,,,57.0366666,,-118.6041667,Alleman Creek,,https://natural-resources.canada.ca/earth-sciences/geography/download-geographical-names-data/9356,,,,,
IAQMM,,Canada,Province - Alberta,,,50.9011111,,-114.6863889,Allen Bill Pond,,https://natural-resources.canada.ca/earth-sciences/geography/download-geographical-names-data/9357,,,,,
IABGH,,Canada,Province - Alberta,,,53.8966666,,-119.0652778,Allen Creek,,https://natural-resources.canada.ca/earth-sciences/geography/download-geographical-names-data/9358,,,,,
IABGE,,Canada,Province - Alberta,,,50.9205556,,-115.5583333,Allenby Creek,,https://natural-resources.canada.ca/earth-sciences/geography/download-geographical-names-data/9359,,,,,
IABGG,,Canada,Province - Alberta,,,50.9647222,,-115.5694444,Allenby Pass,,https://natural-resources.canada.ca/earth-sciences/geography/download-geographical-names-data/9360,,,,,
IAECZ,,Canada,Province - Alberta,,,53.508333,,-113.50139,Allendale,,https://natural-resources.canada.ca/earth-sciences/geography/download-geographical-names-data/9361,,,,,
IABGK,,Canada,Province - Alberta,,,52.4344445,,-111.7852778,Alliance,,https://natural-resources.canada.ca/earth-sciences/geography/download-geographical-names-data/9362,,,,,
IABGL,,Canada,Province - Alberta,,,51.7027778,,-113.5952778,Allingham,,https://natural-resources.canada.ca/earth-sciences/geography/download-geographical-names-data/9363,,,,,
IAUEV,,Canada,Province - Alberta,,,58.7744445,,-111.0366667,Allison Bay 219,,https://natural-resources.canada.ca/earth-sciences/geography/download-geographical-names-data/9364,,,,,
IABGM,,Canada,Province - Alberta,,,49.625,,-114.5897222,Allison Creek,,https://natural-resources.canada.ca/earth-sciences/geography/download-geographical-names-data/9365,,,,,
IABGN,,Canada,Province - Alberta,,,49.7433333,,-114.6463889,Allison Peak,,https://natural-resources.canada.ca/earth-sciences/geography/download-geographical-names-data/9366,,,,,
IABGO,,Canada,Province - Alberta,,,50.7438889,,-114.6894444,Allsmoke Mountain,,https://natural-resources.canada.ca/earth-sciences/geography/download-geographical-names-data/9367,,,,,
IABGP,,Canada,Province - Alberta,,,52.2902778,,-116.3747222,Allstones Creek,,https://natural-resources.canada.ca/earth-sciences/geography/download-geographical-names-data/9368,,,,,
IARAP,,Canada,Province - Alberta,,,52.3025,,-116.4186111,Allstones Lake,,https://natural-resources.canada.ca/earth-sciences/geography/download-geographical-names-data/9369,,,,,
IABGQ,,Canada,Province - Alberta,,,53.7536111,,-110.4416667,Alma Creek,,https://natural-resources.canada.ca/earth-sciences/geography/download-geographical-names-data/9370,,,,,
IABGR,,Canada,Province - Alberta,,,53.7808334,,-110.3966667,Alma Lake,,https://natural-resources.canada.ca/earth-sciences/geography/download-geographical-names-data/9371,,,,,
IABGS,,Canada,Province - Alberta,,,51.6541667,,-111.7313889,Alness,,https://natural-resources.canada.ca/earth-sciences/geography/download-geographical-names-data/9372,,,,,
IABGU,,Canada,Province - Alberta,,,52.4875,,-118.0069444,Alnus Peak,,https://natural-resources.canada.ca/earth-sciences/geography/download-geographical-names-data/9373,,,,,
IABGV,,Canada,Province - Alberta,,,54.4252777,,-112.9252778,Alpen,,https://natural-resources.canada.ca/earth-sciences/geography/download-geographical-names-data/9374,,,,,
IABGW,,Canada,Province - Alberta,,,54.4263889,,-112.9555556,Alpen Siding,,https://natural-resources.canada.ca/earth-sciences/geography/download-geographical-names-data/9375,,,,,
IABGX,,Canada,Province - Alberta,,,53.7727778,,-115.2538889,Alpha Lake,,https://natural-resources.canada.ca/earth-sciences/geography/download-geographical-names-data/9376,,,,,
IABGZ,,Canada,Province - Alberta,,,51.8283333,,-116.8936111,Alpland Creek,,https://natural-resources.canada.ca/earth-sciences/geography/download-geographical-names-data/9377,,,,,
IABGY,,Canada,Province - Alberta,,,52.8975,,-117.5216667,Alpland Creek,,https://natural-resources.canada.ca/earth-sciences/geography/download-geographical-names-data/9378,,,,,
IABHA,,Canada,Province - Alberta,,,53.1916667,,-114.4638889,Alsike,,https://natural-resources.canada.ca/earth-sciences/geography/download-geographical-names-data/9379,,,,,
IABHB,,Canada,Province - Alberta,,,51.016667,,-114.1,Altadore,,https://natural-resources.canada.ca/earth-sciences/geography/download-geographical-names-data/9380,,,,,
IABHC,,Canada,Province - Alberta,,,51.9186111,,-110.1622222,Altario,,https://natural-resources.canada.ca/earth-sciences/geography/download-geographical-names-data/9381,,,,,
IABHE,,Canada,Province - Alberta,,,51.2575,,-115.9352778,Altrude Creek,,https://natural-resources.canada.ca/earth-sciences/geography/download-geographical-names-data/9382,,,,,
IABHF,,Canada,Province - Alberta,,,51.2305556,,-116.0475,Altrude Lakes,,https://natural-resources.canada.ca/earth-sciences/geography/download-geographical-names-data/9383,,,,,
IABHG,,Canada,Province - Alberta,,,52.6783333,,-110.195,Alvena Lake,,https://natural-resources.canada.ca/earth-sciences/geography/download-geographical-names-data/9384,,,,,
IABHH,,Canada,Province - Alberta,,,55.3711111,,-112.9066667,Amadou Lake,,https://natural-resources.canada.ca/earth-sciences/geography/download-geographical-names-data/9385,,,,,
IABHJ,,Canada,Province - Alberta,,,52.8116667,,-117.9052778,Amber Mountain,,https://natural-resources.canada.ca/earth-sciences/geography/download-geographical-names-data/9386,,,,,
IAEDA,,Canada,Province - Alberta,,,58.85,,-118.915,Amber River,,https://natural-resources.canada.ca/earth-sciences/geography/download-geographical-names-data/9387,,,,,
IAUCC,,Canada,Province - Alberta,,,58.8922222,,-118.9461111,Amber River 211,,https://natural-resources.canada.ca/earth-sciences/geography/download-geographical-names-data/9388,,,,,
IABHK,,Canada,Province - Alberta,,,54.7327778,,-112.9294444,Amber Valley,,https://natural-resources.canada.ca/earth-sciences/geography/download-geographical-names-data/9389,,,,,
IABHL,,Canada,Province - Alberta,,,53.9302777,,-119.2547222,Ambler Mountain,,https://natural-resources.canada.ca/earth-sciences/geography/download-geographical-names-data/9390,,,,,
IABHM,,Canada,Province - Alberta,,,53.8913889,,-113.0522222,Amelia,,https://natural-resources.canada.ca/earth-sciences/geography/download-geographical-names-data/9391,,,,,
IABHO,,Canada,Province - Alberta,,,55.0811111,,-112.4972222,Amesbury,,https://natural-resources.canada.ca/earth-sciences/geography/download-geographical-names-data/9392,,,,,
IABHP,,Canada,Province - Alberta,,,52.7,,-118.2769444,Amethyst Lakes,,https://natural-resources.canada.ca/earth-sciences/geography/download-geographical-names-data/9393,,,,,
IABHQ,,Canada,Province - Alberta,,,52.5655555,,-111.0572222,Amisk,,https://natural-resources.canada.ca/earth-sciences/geography/download-geographical-names-data/9394,,,,,
IABHR,,Canada,Province - Alberta,,,53.365,,-112.5380556,Amisk Creek,,https://natural-resources.canada.ca/earth-sciences/geography/download-geographical-names-data/9395,,,,,
IAIYZ,,Canada,Province - Alberta,,,54.5936111,,-112.6330556,Amisk Lake,,https://natural-resources.canada.ca/earth-sciences/geography/download-geographical-names-data/9396,,,,,
IABHS,,Canada,Province - Alberta,,,54.4644444,,-111.7711111,Amisk River,,https://natural-resources.canada.ca/earth-sciences/geography/download-geographical-names-data/9397,,,,,
IABHT,,Canada,Province - Alberta,,,53.0372223,,-117.8252778,Ammonite Creek,,https://natural-resources.canada.ca/earth-sciences/geography/download-geographical-names-data/9398,,,,,
IAEDB,,Canada,Province - Alberta,,,54.4211111,,-118.3861111,Amundson,,https://natural-resources.canada.ca/earth-sciences/geography/download-geographical-names-data/9399,,,,,
IABSU,,Canada,Province - Alberta,,,54.3566667,,-113.6269444,Analta,,https://natural-resources.canada.ca/earth-sciences/geography/download-geographical-names-data/9400,,,,,
IABSV,,Canada,Province - Alberta,,,50.7233333,,-113.0319444,Anastasia,,https://natural-resources.canada.ca/earth-sciences/geography/download-geographical-names-data/9401,,,,,
IABSY,,Canada,Province - Alberta,,,52.4502778,,-115.5869444,Ancona,,https://natural-resources.canada.ca/earth-sciences/geography/download-geographical-names-data/9402,,,,,
IABSZ,,Canada,Province - Alberta,,,53.3119444,,-117.2855556,Anderson Creek,,https://natural-resources.canada.ca/earth-sciences/geography/download-geographical-names-data/9403,,,,,
IABTA,,Canada,Province - Alberta,,,52.7683333,,-114.3102778,Anderson Creek,,https://natural-resources.canada.ca/earth-sciences/geography/download-geographical-names-data/9404,,,,,
IABTB,,Canada,Province - Alberta,,,55.3386112,,-119.2441667,Anderson Lake,,https://natural-resources.canada.ca/earth-sciences/geography/download-geographical-names-data/9405,,,,,
IABTD,,Canada,Province - Alberta,,,49.1344444,,-114.0786111,Anderson Peak,,https://natural-resources.canada.ca/earth-sciences/geography/download-geographical-names-data/9406,,,,,
IABTE,,Canada,Province - Alberta,,,53.8783333,,-112.3352778,Andrew,,https://natural-resources.canada.ca/earth-sciences/geography/download-geographical-names-data/9407,,,,,
IABTF,,Canada,Province - Alberta,,,59.8933333,,-110.1147222,Andrew Lake,,https://natural-resources.canada.ca/earth-sciences/geography/download-geographical-names-data/9408,,,,,
IABTH,,Canada,Province - Alberta,,,49.5655556,,-114.5886111,Andy Good Peak,,https://natural-resources.canada.ca/earth-sciences/geography/download-geographical-names-data/9409,,,,,
IABTI,,Canada,Province - Alberta,,,52.6766666,,-118.0622222,Angel Glacier,,https://natural-resources.canada.ca/earth-sciences/geography/download-geographical-names-data/9410,,,,,
IABTK,,Canada,Province - Alberta,,,53.74,,-110.9680556,Angle Lake,,https://natural-resources.canada.ca/earth-sciences/geography/download-geographical-names-data/9411,,,,,
IABTL,,Canada,Province - Alberta,,,52.61,,-118.2119444,Angle Peak,,https://natural-resources.canada.ca/earth-sciences/geography/download-geographical-names-data/9412,,,,,
IABTM,,Canada,Province - Alberta,,,54.1991667,,-110.3280556,Angling Lake,,https://natural-resources.canada.ca/earth-sciences/geography/download-geographical-names-data/9413,,,,,
IABTQ,,Canada,Province - Alberta,,,52.7302778,,-112.33,Ankerton,,https://natural-resources.canada.ca/earth-sciences/geography/download-geographical-names-data/9414,,,,,
IABTS,,Canada,Province - Alberta,,,54.7405556,,-115.2316667,Anna Lake,,https://natural-resources.canada.ca/earth-sciences/geography/download-geographical-names-data/9415,,,,,
IABTR,,Canada,Province - Alberta,,,53.5319445,,-116.7208333,Annabel Lake,,https://natural-resources.canada.ca/earth-sciences/geography/download-geographical-names-data/9416,,,,,
IAIZW,,Canada,Province - Alberta,,,52.9016667,,-118.0475,Annette Lake,,https://natural-resources.canada.ca/earth-sciences/geography/download-geographical-names-data/9417,,,,,
IABTX,,Canada,Province - Alberta,,,53.5572222,,-116.5255556,Ansell,,https://natural-resources.canada.ca/earth-sciences/geography/download-geographical-names-data/9418,,,,,
IABTY,,Canada,Province - Alberta,,,54.5055556,,-113.1019444,Ansell Lake,,https://natural-resources.canada.ca/earth-sciences/geography/download-geographical-names-data/9419,,,,,
IABUA,,Canada,Province - Alberta,,,53.89,,-115.3888889,Anselmo,,https://natural-resources.canada.ca/earth-sciences/geography/download-geographical-names-data/9420,,,,,
IABUC,,Canada,Province - Alberta,,,54.7688889,,-117.6869444,Ante Creek,,https://natural-resources.canada.ca/earth-sciences/geography/download-geographical-names-data/9421,,,,,
IAALC,,Canada,Province - Alberta,,,49.7702778,,-114.2088889,Antelope Butte,,https://natural-resources.canada.ca/earth-sciences/geography/download-geographical-names-data/9422,,,,,
IARAQ,,Canada,Province - Alberta,,,51.7497222,,-111.9283333,Antelope Hills,,https://natural-resources.canada.ca/earth-sciences/geography/download-geographical-names-data/9423,,,,,
IABUD,,Canada,Province - Alberta,,,51.6694444,,-111.2491667,Antelope Lake,,https://natural-resources.canada.ca/earth-sciences/geography/download-geographical-names-data/9424,,,,,
IABUE,,Canada,Province - Alberta,,,51.2863889,,-112.2397222,Antelope Lakes,,https://natural-resources.canada.ca/earth-sciences/geography/download-geographical-names-data/9425,,,,,
IABUF,,Canada,Province - Alberta,,,53.6019444,,-118.9438889,Anthony Creek,,https://natural-resources.canada.ca/earth-sciences/geography/download-geographical-names-data/9426,,,,,
IABUG,,Canada,Province - Alberta,,,51.4627778,,-116.0275,Anthozoan Mountain,,https://natural-resources.canada.ca/earth-sciences/geography/download-geographical-names-data/9427,,,,,
IABUH,,Canada,Province - Alberta,,,51.1925,,-115.4938889,Anthracite,,https://natural-resources.canada.ca/earth-sciences/geography/download-geographical-names-data/9428,,,,,
IABUI,,Canada,Province - Alberta,,,53.2122222,,-117.3280556,Antler Creek,,https://natural-resources.canada.ca/earth-sciences/geography/download-geographical-names-data/9429,,,,,
IABUJ,,Canada,Province - Alberta,,,52.0630556,,-113.8933333,Antler Hill,,https://natural-resources.canada.ca/earth-sciences/geography/download-geographical-names-data/9430,,,,,
IABUK,,Canada,Province - Alberta,,,53.4969444,,-112.9694444,Antler Lake,,https://natural-resources.canada.ca/earth-sciences/geography/download-geographical-names-data/9431,,,,,
IASVM,,Canada,Province - Alberta,,,57.5488889,,-113.3777778,Antler Lake,,https://natural-resources.canada.ca/earth-sciences/geography/download-geographical-names-data/9432,,,,,
IASZX,,Canada,Province - Alberta,,,52.7505556,,-117.8172222,Antler Lakes,,https://natural-resources.canada.ca/earth-sciences/geography/download-geographical-names-data/9433,,,,,
IABUL,,Canada,Province - Alberta,,,52.7588889,,-117.8458333,Antler Mountain,,https://natural-resources.canada.ca/earth-sciences/geography/download-geographical-names-data/9434,,,,,
IABUM,,Canada,Province - Alberta,,,54.7672223,,-112.0877778,Antoine Lake,,https://natural-resources.canada.ca/earth-sciences/geography/download-geographical-names-data/9435,,,,,
IABUO,,Canada,Province - Alberta,,,54.1530556,,-113.3888889,Anton Lake,,https://natural-resources.canada.ca/earth-sciences/geography/download-geographical-names-data/9436,,,,,
IABUN,,Canada,Province - Alberta,,,49.8211111,,-111.7941667,Antonio,,https://natural-resources.canada.ca/earth-sciences/geography/download-geographical-names-data/9437,,,,,
IABUP,,Canada,Province - Alberta,,,53.0766667,,-114.5136111,Antross,,https://natural-resources.canada.ca/earth-sciences/geography/download-geographical-names-data/9438,,,,,
IABUQ,,Canada,Province - Alberta,,,56.4486111,,-111.0352778,Anzac,,https://natural-resources.canada.ca/earth-sciences/geography/download-geographical-names-data/9439,,,,,
IBAJY,,Canada,Province - Alberta,,,51.1361111,,-115.3377778,Anû Kathâ Îpa (Bald Eagle Peak) ,,https://natural-resources.canada.ca/earth-sciences/geography/download-geographical-names-data/9440,,,,,
IABUR,,Canada,Province - Alberta,,,53.6436111,,-117.2616667,Apetowun Creek,,https://natural-resources.canada.ca/earth-sciences/geography/download-geographical-names-data/9441,,,,,
IABUS,,Canada,Province - Alberta,,,52.2227778,,-117.8133333,Apex Mountain,,https://natural-resources.canada.ca/earth-sciences/geography/download-geographical-names-data/9442,,,,,
IABUT,,Canada,Province - Alberta,,,51.3675,,-115.4583333,Apparition Mountain,,https://natural-resources.canada.ca/earth-sciences/geography/download-geographical-names-data/9443,,,,,
IATLV,,Canada,Province - Alberta,,,51.043056,,-113.925,Applewood Park,,https://natural-resources.canada.ca/earth-sciences/geography/download-geographical-names-data/9444,,,,,
IARAR,,Canada,Province - Alberta,,,51.4722222,,-113.0286111,Appleyard Coulee,,https://natural-resources.canada.ca/earth-sciences/geography/download-geographical-names-data/9445,,,,,
IABUU,,Canada,Province - Alberta,,,52.7366667,,-118.1094444,Aquila Mountain,,https://natural-resources.canada.ca/earth-sciences/geography/download-geographical-names-data/9446,,,,,
IATLW,,Canada,Province - Alberta,,,51.134722,,-114.20278,Arbour Lake,,https://natural-resources.canada.ca/earth-sciences/geography/download-geographical-names-data/9447,,,,,
IABUV,,Canada,Province - Alberta,,,55.4005556,,-116.1280556,Arcadia,,https://natural-resources.canada.ca/earth-sciences/geography/download-geographical-names-data/9448,,,,,
IABUW,,Canada,Province - Alberta,,,55.4305556,,-116.0777778,Arcadia Creek,,https://natural-resources.canada.ca/earth-sciences/geography/download-geographical-names-data/9449,,,,,
IABUX,,Canada,Province - Alberta,,,53.1061111,,-110.7875,Arcand Lake,,https://natural-resources.canada.ca/earth-sciences/geography/download-geographical-names-data/9450,,,,,
IACIH,,Canada,Province - Alberta,,,59.8705556,,-110.63,Arch Lake,,https://natural-resources.canada.ca/earth-sciences/geography/download-geographical-names-data/9451,,,,,
IABUY,,Canada,Province - Alberta,,,58.0791667,,-110.6208333,Archer Creek,,https://natural-resources.canada.ca/earth-sciences/geography/download-geographical-names-data/9452,,,,,
IABUZ,,Canada,Province - Alberta,,,53.6736111,,-112.8358333,Archer Island,,https://natural-resources.canada.ca/earth-sciences/geography/download-geographical-names-data/9453,,,,,
IABVA,,Canada,Province - Alberta,,,58.1130556,,-110.3405556,Archer Lake,,https://natural-resources.canada.ca/earth-sciences/geography/download-geographical-names-data/9454,,,,,
IABVB,,Canada,Province - Alberta,,,52.7444445,,-111.1019444,Archie Hill,,https://natural-resources.canada.ca/earth-sciences/geography/download-geographical-names-data/9455,,,,,
IABVC,,Canada,Province - Alberta,,,54.5063889,,-113.0788889,Archie Lake,,https://natural-resources.canada.ca/earth-sciences/geography/download-geographical-names-data/9456,,,,,
IABVD,,Canada,Province - Alberta,,,54.6877777,,-115.0775,Archie Lake,,https://natural-resources.canada.ca/earth-sciences/geography/download-geographical-names-data/9457,,,,,
IACIJ,,Canada,Province - Alberta,,,51.9933333,,-116.8147222,Arctomys Creek,,https://natural-resources.canada.ca/earth-sciences/geography/download-geographical-names-data/9458,,,,,
IACIK,,Canada,Province - Alberta,,,51.9333333,,-116.9833333,Arctomys Peak,,https://natural-resources.canada.ca/earth-sciences/geography/download-geographical-names-data/9459,,,,,
IACIL,,Canada,Province - Alberta,,,53.4486111,,-118.66,Arcturus Peak,,https://natural-resources.canada.ca/earth-sciences/geography/download-geographical-names-data/9460,,,,,
IATLA,,Canada,Province - Alberta,,,52.0413889,,-116.3588889,Ardennes Peak,,https://natural-resources.canada.ca/earth-sciences/geography/download-geographical-names-data/9461,,,,,
IACIM,,Canada,Province - Alberta,,,51.1444444,,-113.4236111,Ardenode,,https://natural-resources.canada.ca/earth-sciences/geography/download-geographical-names-data/9462,,,,,
IADNH,,Canada,Province - Alberta,,,58.8963889,,-111.4658333,Ardens Slough,,https://natural-resources.canada.ca/earth-sciences/geography/download-geographical-names-data/9463,,,,,
IACIN,,Canada,Province - Alberta,,,49.545,,-113.4586111,Ardenville,,https://natural-resources.canada.ca/earth-sciences/geography/download-geographical-names-data/9464,,,,,
IACIO,,Canada,Province - Alberta,,,52.2613889,,-113.2275,Ardley,,https://natural-resources.canada.ca/earth-sciences/geography/download-geographical-names-data/9465,,,,,
IACIP,,Canada,Province - Alberta,,,54.3319444,,-110.4827778,Ardmore,,https://natural-resources.canada.ca/earth-sciences/geography/download-geographical-names-data/9466,,,,,
IACIQ,,Canada,Province - Alberta,,,53.5522222,,-113.1438889,Ardrossan,,https://natural-resources.canada.ca/earth-sciences/geography/download-geographical-names-data/9467,,,,,
IACIS,,Canada,Province - Alberta,,,53.0536111,,-114.0163889,Argentia Beach,,https://natural-resources.canada.ca/earth-sciences/geography/download-geographical-names-data/9468,,,,,
IATQU,,Canada,Province - Alberta,,,53.502778,,-113.45972,Argyll,,https://natural-resources.canada.ca/earth-sciences/geography/download-geographical-names-data/9469,,,,,
IACIV,,Canada,Province - Alberta,,,51.7872222,,-116.6447222,Aries Peak,,https://natural-resources.canada.ca/earth-sciences/geography/download-geographical-names-data/9470,,,,,
IACJA,,Canada,Province - Alberta,,,52.7463889,,-110.5994444,Arm Lake,,https://natural-resources.canada.ca/earth-sciences/geography/download-geographical-names-data/9471,,,,,
IACIW,,Canada,Province - Alberta,,,50.4138889,,-112.7536111,Armada,,https://natural-resources.canada.ca/earth-sciences/geography/download-geographical-names-data/9472,,,,,
IACIY,,Canada,Province - Alberta,,,53.1225,,-112.9488889,Armena,,https://natural-resources.canada.ca/earth-sciences/geography/download-geographical-names-data/9473,,,,,
IATBL,,Canada,Province - Alberta,,,51.2833333,,-110.4116667,Armitage's Lake,,https://natural-resources.canada.ca/earth-sciences/geography/download-geographical-names-data/9474,,,,,
IAQNA,,Canada,Province - Alberta,,,52.825,,-111.0925,Armstrong Hill,,https://natural-resources.canada.ca/earth-sciences/geography/download-geographical-names-data/9475,,,,,
IACJB,,Canada,Province - Alberta,,,53.566667,,-113.61667,Armstrong Industrial,,https://natural-resources.canada.ca/earth-sciences/geography/download-geographical-names-data/9476,,,,,
IADNI,,Canada,Province - Alberta,,,54.3894444,,-113.6438889,Armstrong Lake,,https://natural-resources.canada.ca/earth-sciences/geography/download-geographical-names-data/9477,,,,,
IAQNB,,Canada,Province - Alberta,,,52.8236111,,-111.0583333,Armstrong Spring,,https://natural-resources.canada.ca/earth-sciences/geography/download-geographical-names-data/9478,,,,,
IACJD,,Canada,Province - Alberta,,,53.705,,-114.7361111,Arnault Lake,,https://natural-resources.canada.ca/earth-sciences/geography/download-geographical-names-data/9479,,,,,
IACJE,,Canada,Province - Alberta,,,51.1866667,,-110.075,Arneson,,https://natural-resources.canada.ca/earth-sciences/geography/download-geographical-names-data/9480,,,,,
IADNJ,,Canada,Province - Alberta,,,51.2213889,,-115.9969444,Arnica Lake,,https://natural-resources.canada.ca/earth-sciences/geography/download-geographical-names-data/9481,,,,,
IACJF,,Canada,Province - Alberta,,,52.7805556,,-118.2583333,Arris Mountain,,https://natural-resources.canada.ca/earth-sciences/geography/download-geographical-names-data/9482,,,,,
IACJH,,Canada,Province - Alberta,,,52.6358334,,-118.2297222,Arrowhead Lake,,https://natural-resources.canada.ca/earth-sciences/geography/download-geographical-names-data/9483,,,,,
IACJG,,Canada,Province - Alberta,,,59.6855556,,-113.6294444,Arrowhead Lake,,https://natural-resources.canada.ca/earth-sciences/geography/download-geographical-names-data/9484,,,,,
IADNK,,Canada,Province - Alberta,,,49.9355556,,-112.5091667,Arrowsmith Coulee,,https://natural-resources.canada.ca/earth-sciences/geography/download-geographical-names-data/9485,,,,,
IACJI,,Canada,Province - Alberta,,,50.7394444,,-113.1483332,Arrowwood,,https://natural-resources.canada.ca/earth-sciences/geography/download-geographical-names-data/9486,,,,,
IACJK,,Canada,Province - Alberta,,,53.7647222,,-114.6488889,Arthur Lake,,https://natural-resources.canada.ca/earth-sciences/geography/download-geographical-names-data/9487,,,,,
IACJL,,Canada,Province - Alberta,,,54.5316666,,-113.1533333,Arthur Lake,,https://natural-resources.canada.ca/earth-sciences/geography/download-geographical-names-data/9488,,,,,
IACJN,,Canada,Province - Alberta,,,52.7558333,,-111.0933333,Arty Hill,,https://natural-resources.canada.ca/earth-sciences/geography/download-geographical-names-data/9489,,,,,
IACJO,,Canada,Province - Alberta,,,53.9916666,,-114.0025,Arvilla,,https://natural-resources.canada.ca/earth-sciences/geography/download-geographical-names-data/9490,,,,,
IACIR,,Canada,Province - Alberta,,,52.4747222,,-116.9458333,Arête Mountain,,https://natural-resources.canada.ca/earth-sciences/geography/download-geographical-names-data/9491,,,,,
IACJR,,Canada,Province - Alberta,,,52.7511111,,-116.5352778,Ashburner Creek,,https://natural-resources.canada.ca/earth-sciences/geography/download-geographical-names-data/9492,,,,,
IACJS,,Canada,Province - Alberta,,,53.2044444,,-117.8433333,Ashlar Creek,,https://natural-resources.canada.ca/earth-sciences/geography/download-geographical-names-data/9493,,,,,
IACJT,,Canada,Province - Alberta,,,53.1727777,,-117.805,Ashlar Ridge,,https://natural-resources.canada.ca/earth-sciences/geography/download-geographical-names-data/9494,,,,,
IACJU,,Canada,Province - Alberta,,,54.1291666,,-111.5680556,Ashmont,,https://natural-resources.canada.ca/earth-sciences/geography/download-geographical-names-data/9495,,,,,
IACJV,,Canada,Province - Alberta,,,59.8425,,-110.4069444,Ashton Lake,,https://natural-resources.canada.ca/earth-sciences/geography/download-geographical-names-data/9496,,,,,
IACJP,,Canada,Province - Alberta,,,52.4613889,,-113.9386111,Aspen Beach,,https://natural-resources.canada.ca/earth-sciences/geography/download-geographical-names-data/9497,,,,,
IACJX,,Canada,Province - Alberta,,,52.4622222,,-113.9766667,Aspen Beach Provincial Park,,https://natural-resources.canada.ca/earth-sciences/geography/download-geographical-names-data/9498,,,,,
IATPB,,Canada,Province - Alberta,,,53.475,,-113.54444,Aspen Gardens,,https://natural-resources.canada.ca/earth-sciences/geography/download-geographical-names-data/9499,,,,,
IACJQ,,Canada,Province - Alberta,,,57.5383333,,-111.6311111,Asphalt Creek,,https://natural-resources.canada.ca/earth-sciences/geography/download-geographical-names-data/9500,,,,,
IADNL,,Canada,Province - Alberta,,,54.9258333,,-117.2186111,Asplund Creek,,https://natural-resources.canada.ca/earth-sciences/geography/download-geographical-names-data/9501,,,,,
IACKA,,Canada,Province - Alberta,,,55.3744445,,-115.1911111,Assineau,,https://natural-resources.canada.ca/earth-sciences/geography/download-geographical-names-data/9502,,,,,
IACKB,,Canada,Province - Alberta,,,55.39,,-115.1961111,Assineau River,,https://natural-resources.canada.ca/earth-sciences/geography/download-geographical-names-data/9503,,,,,
IAUDH,,Canada,Province - Alberta,,,55.3872222,,-115.1891667,Assineau River 150F,,https://natural-resources.canada.ca/earth-sciences/geography/download-geographical-names-data/9504,,,,,
IACKD,,Canada,Province - Alberta,,,50.9263889,,-115.6088889,Assiniboine Pass,,https://natural-resources.canada.ca/earth-sciences/geography/download-geographical-names-data/9505,,,,,
IACKE,,Canada,Province - Alberta,,,51.1805556,,-115.1261111,Association Peak,,https://natural-resources.canada.ca/earth-sciences/geography/download-geographical-names-data/9506,,,,,
IAAQB,,Canada,Province - Alberta,,,58.6994444,,-118.6872222,Assumption,,https://natural-resources.canada.ca/earth-sciences/geography/download-geographical-names-data/9507,,,,,
IACKF,,Canada,Province - Alberta,,,50.5863889,,-115.2016667,Aster Creek,,https://natural-resources.canada.ca/earth-sciences/geography/download-geographical-names-data/9508,,,,,
IACKG,,Canada,Province - Alberta,,,50.5777777,,-115.2108333,Aster Lake,,https://natural-resources.canada.ca/earth-sciences/geography/download-geographical-names-data/9509,,,,,
IACKI,,Canada,Province - Alberta,,,52.7075,,-118.1425,Astoria Pass,,https://natural-resources.canada.ca/earth-sciences/geography/download-geographical-names-data/9510,,,,,
IACKJ,,Canada,Province - Alberta,,,52.7986111,,-118.02,Astoria River,,https://natural-resources.canada.ca/earth-sciences/geography/download-geographical-names-data/9511,,,,,
IACKK,,Canada,Province - Alberta,,,53.8530555,,-112.9413889,Astotin Creek,,https://natural-resources.canada.ca/earth-sciences/geography/download-geographical-names-data/9512,,,,,
IACKL,,Canada,Province - Alberta,,,53.6819444,,-112.8533333,Astotin Lake,,https://natural-resources.canada.ca/earth-sciences/geography/download-geographical-names-data/9513,,,,,
IARFF,,Canada,Province - Alberta,,,54.7166666,,-113.2841667,Athabasca,,https://natural-resources.canada.ca/earth-sciences/geography/download-geographical-names-data/9514,,,,,
IACKN,,Canada,Province - Alberta,,,52.6644444,,-117.8833333,Athabasca Falls,,https://natural-resources.canada.ca/earth-sciences/geography/download-geographical-names-data/9515,,,,,
IACKO,,Canada,Province - Alberta,,,52.1986111,,-117.2436111,Athabasca Glacier,,https://natural-resources.canada.ca/earth-sciences/geography/download-geographical-names-data/9516,,,,,
IARYO,,Canada,Province - Alberta,,,54.716667,,-113.28333,Athabasca Landing Provincial Historic Site (Undeveloped),,https://natural-resources.canada.ca/earth-sciences/geography/download-geographical-names-data/9517,,,,,
IACKQ,,Canada,Province - Alberta,,,52.3822222,,-118.19,Athabasca Pass,,https://natural-resources.canada.ca/earth-sciences/geography/download-geographical-names-data/9518,,,,,
IATZT,,Canada,Province - Alberta,,,52.383333,,-118.18889,Athabasca Pass National Historic Site of Canada,,https://natural-resources.canada.ca/earth-sciences/geography/download-geographical-names-data/9519,,,,,
IAQZZ,,Canada,Province - Alberta,,,58.6666667,,-110.8333333,Athabasca River,,https://natural-resources.canada.ca/earth-sciences/geography/download-geographical-names-data/9520,,,,,
IATTD,,Canada,Province - Alberta,,,53.588889,,-113.54861,Athlone,,https://natural-resources.canada.ca/earth-sciences/geography/download-geographical-names-data/9521,,,,,
IASTK,,Canada,Province - Alberta,,,58.7391667,,-115.4836111,Atihk Sakahikun,,https://natural-resources.canada.ca/earth-sciences/geography/download-geographical-names-data/9522,,,,,
IACKT,,Canada,Province - Alberta,,,55.9169444,,-115.6513889,Atikameg,,https://natural-resources.canada.ca/earth-sciences/geography/download-geographical-names-data/9523,,,,,
IACKV,,Canada,Province - Alberta,,,54.6066667,,-116.8533333,Atikkamek Creek,,https://natural-resources.canada.ca/earth-sciences/geography/download-geographical-names-data/9524,,,,,
IACKW,,Canada,Province - Alberta,,,53.5980556,,-113.7558333,Atim Creek,,https://natural-resources.canada.ca/earth-sciences/geography/download-geographical-names-data/9525,,,,,
IACKX,,Canada,Province - Alberta,,,53.5936111,,-113.8341667,Atim Lake,,https://natural-resources.canada.ca/earth-sciences/geography/download-geographical-names-data/9526,,,,,
IACKZ,,Canada,Province - Alberta,,,51.4186111,,-114.8405556,Atkinson Creek,,https://natural-resources.canada.ca/earth-sciences/geography/download-geographical-names-data/9527,,,,,
IACLB,,Canada,Province - Alberta,,,50.8416667,,-110.9502778,Atlee,,https://natural-resources.canada.ca/earth-sciences/geography/download-geographical-names-data/9528,,,,,
IACLC,,Canada,Province - Alberta,,,54.8191667,,-112.5497222,Atmore,,https://natural-resources.canada.ca/earth-sciences/geography/download-geographical-names-data/9529,,,,,
IACLD,,Canada,Province - Alberta,,,51.3130556,,-113.0547222,Atusis Creek,,https://natural-resources.canada.ca/earth-sciences/geography/download-geographical-names-data/9530,,,,,
IACLE,,Canada,Province - Alberta,,,53.0583333,,-110.8591667,Auburndale,,https://natural-resources.canada.ca/earth-sciences/geography/download-geographical-names-data/9531,,,,,
IACLF,,Canada,Province - Alberta,,,57.6444445,,-110.9122222,Audet Lake,,https://natural-resources.canada.ca/earth-sciences/geography/download-geographical-names-data/9532,,,,,
IACLG,,Canada,Province - Alberta,,,55.3994444,,-115.2533333,Auger Bay,,https://natural-resources.canada.ca/earth-sciences/geography/download-geographical-names-data/9533,,,,,
IACLH,,Canada,Province - Alberta,,,54.7208334,,-112.5166667,Auger Lake,,https://natural-resources.canada.ca/earth-sciences/geography/download-geographical-names-data/9534,,,,,
IACLI,,Canada,Province - Alberta,,,51.3344444,,-114.9352778,Aura Creek,,https://natural-resources.canada.ca/earth-sciences/geography/download-geographical-names-data/9535,,,,,
IACLJ,,Canada,Province - Alberta,,,50.825,,-115.5427778,Aurora Mountain,,https://natural-resources.canada.ca/earth-sciences/geography/download-geographical-names-data/9536,,,,,
IACLK,,Canada,Province - Alberta,,,53.5855555,,-119.8652778,Avalanche Creek,,https://natural-resources.canada.ca/earth-sciences/geography/download-geographical-names-data/9537,,,,,
IACLL,,Canada,Province - Alberta,,,53.6161111,,-119.9108333,Avalanche Pass,,https://natural-resources.canada.ca/earth-sciences/geography/download-geographical-names-data/9538,,,,,
IACLN,,Canada,Province - Alberta,,,55.0405555,,-112.2808333,Avenir,,https://natural-resources.canada.ca/earth-sciences/geography/download-geographical-names-data/9539,,,,,
IACLO,,Canada,Province - Alberta,,,49.1563888,,-114.1138889,Avion Ridge,,https://natural-resources.canada.ca/earth-sciences/geography/download-geographical-names-data/9540,,,,,
IACLP,,Canada,Province - Alberta,,,53.5,,-113.45,Avonmore,,https://natural-resources.canada.ca/earth-sciences/geography/download-geographical-names-data/9541,,,,,
IASZP,,Canada,Province - Alberta,,,50.8444445,,-115.6430556,Aye Mountain,,https://natural-resources.canada.ca/earth-sciences/geography/download-geographical-names-data/9542,,,,,
IASHC,,Canada,Province - Alberta,,,51.2922222,,-115.4161111,Aylmer Canyon,,https://natural-resources.canada.ca/earth-sciences/geography/download-geographical-names-data/9543,,,,,
IACWA,,Canada,Province - Alberta,,,51.3177778,,-115.4552778,Aylmer Pass,,https://natural-resources.canada.ca/earth-sciences/geography/download-geographical-names-data/9544,,,,,
IARPW,,Canada,Province - Alberta,,,52.4586111,,-117.0102778,Aztec Lake,,https://natural-resources.canada.ca/earth-sciences/geography/download-geographical-names-data/9545,,,,,
IACWC,,Canada,Province - Alberta,,,50.5011111,,-113.87,Azure,,https://natural-resources.canada.ca/earth-sciences/geography/download-geographical-names-data/9546,,,,,
IACWE,,Canada,Province - Alberta,,,53.4580556,,-119.0025,Azure Lake,,https://natural-resources.canada.ca/earth-sciences/geography/download-geographical-names-data/9547,,,,,
IACWF,,Canada,Province - Alberta,,,51.3327778,,-116.1755556,Babel Creek,,https://natural-resources.canada.ca/earth-sciences/geography/download-geographical-names-data/9548,,,,,
IACWI,,Canada,Province - Alberta,,,54.6469445,,-113.0786111,Babette Creek,,https://natural-resources.canada.ca/earth-sciences/geography/download-geographical-names-data/9549,,,,,
IACWK,,Canada,Province - Alberta,,,53.1619445,,-116.7677778,Bacon Creek,,https://natural-resources.canada.ca/earth-sciences/geography/download-geographical-names-data/9550,,,,,
IACWS,,Canada,Province - Alberta,,,55.5,,-118.3,Bad Heart,,https://natural-resources.canada.ca/earth-sciences/geography/download-geographical-names-data/9551,,,,,
IACWT,,Canada,Province - Alberta,,,55.5522222,,-118.1930556,Bad Heart River,,https://natural-resources.canada.ca/earth-sciences/geography/download-geographical-names-data/9552,,,,,
IACWV,,Canada,Province - Alberta,,,50.0825,,-111.7625,Bad Land Hills,,https://natural-resources.canada.ca/earth-sciences/geography/download-geographical-names-data/9553,,,,,
IADNO,,Canada,Province - Alberta,,,57.0938889,,-114.64,Bad Rapids,,https://natural-resources.canada.ca/earth-sciences/geography/download-geographical-names-data/9554,,,,,
IACWM,,Canada,Province - Alberta,,,52.8219445,,-110.9933333,Badger Hill,,https://natural-resources.canada.ca/earth-sciences/geography/download-geographical-names-data/9555,,,,,
IARAS,,Canada,Province - Alberta,,,51.9211111,,-112.1563889,Badger Hill,,https://natural-resources.canada.ca/earth-sciences/geography/download-geographical-names-data/9556,,,,,
IADNN,,Canada,Province - Alberta,,,50.3802778,,-112.4644444,Badger Lake,,https://natural-resources.canada.ca/earth-sciences/geography/download-geographical-names-data/9557,,,,,
IACWQ,,Canada,Province - Alberta,,,51.4108333,,-115.8933333,Badger Pass,,https://natural-resources.canada.ca/earth-sciences/geography/download-geographical-names-data/9558,,,,,
IACWX,,Canada,Province - Alberta,,,52.9775,,-116.8366667,Bailey Creek,,https://natural-resources.canada.ca/earth-sciences/geography/download-geographical-names-data/9559,,,,,
IADNP,,Canada,Province - Alberta,,,59.9461111,,-110.1705556,Bailey Lake,,https://natural-resources.canada.ca/earth-sciences/geography/download-geographical-names-data/9560,,,,,
IACWY,,Canada,Province - Alberta,,,53.5488889,,-112.8933333,Bailey Lakes,,https://natural-resources.canada.ca/earth-sciences/geography/download-geographical-names-data/9561,,,,,
IARTT,,Canada,Province - Alberta,,,49.6319444,,-112.9166667,Bailey's Bottom,,https://natural-resources.canada.ca/earth-sciences/geography/download-geographical-names-data/9562,,,,,
IACXA,,Canada,Province - Alberta,,,49.2738889,,-110.3977778,Bain,,https://natural-resources.canada.ca/earth-sciences/geography/download-geographical-names-data/9563,,,,,
IACXC,,Canada,Province - Alberta,,,51.1733333,,-113.2422222,Baintree,,https://natural-resources.canada.ca/earth-sciences/geography/download-geographical-names-data/9564,,,,,
IACXD,,Canada,Province - Alberta,,,54.3413889,,-114.4063889,Baird Lake,,https://natural-resources.canada.ca/earth-sciences/geography/download-geographical-names-data/9565,,,,,
IACXE,,Canada,Province - Alberta,,,51.3458333,,-116.0694444,Baker Creek,,https://natural-resources.canada.ca/earth-sciences/geography/download-geographical-names-data/9566,,,,,
IACXG,,Canada,Province - Alberta,,,53.0347222,,-110.2502778,Baker Lake,,https://natural-resources.canada.ca/earth-sciences/geography/download-geographical-names-data/9567,,,,,
IACXF,,Canada,Province - Alberta,,,51.4911111,,-116.0405556,Baker Lake,,https://natural-resources.canada.ca/earth-sciences/geography/download-geographical-names-data/9568,,,,,
IADNQ,,Canada,Province - Alberta,,,56.4336111,,-110.1194444,Baker Lake,,https://natural-resources.canada.ca/earth-sciences/geography/download-geographical-names-data/9569,,,,,
IACXJ,,Canada,Province - Alberta,,,54.8905556,,-118.6963889,Bald Mountain Creek,,https://natural-resources.canada.ca/earth-sciences/geography/download-geographical-names-data/9570,,,,,
IACXL,,Canada,Province - Alberta,,,51.5922222,,-116.3994444,Balfour Creek,,https://natural-resources.canada.ca/earth-sciences/geography/download-geographical-names-data/9571,,,,,
IACXM,,Canada,Province - Alberta,,,51.5719445,,-116.4305556,Balfour Glacier,,https://natural-resources.canada.ca/earth-sciences/geography/download-geographical-names-data/9572,,,,,
IACXO,,Canada,Province - Alberta,,,51.5872222,,-116.4719444,Balfour Pass,,https://natural-resources.canada.ca/earth-sciences/geography/download-geographical-names-data/9573,,,,,
IACXP,,Canada,Province - Alberta,,,52.7758334,,-117.3666667,Balinhard Creek,,https://natural-resources.canada.ca/earth-sciences/geography/download-geographical-names-data/9574,,,,,
IACXV,,Canada,Province - Alberta,,,53.5205556,,-113.2741667,Ball Lake,,https://natural-resources.canada.ca/earth-sciences/geography/download-geographical-names-data/9575,,,,,
IADNS,,Canada,Province - Alberta,,,51.1263889,,-115.9886111,Ball Pass,,https://natural-resources.canada.ca/earth-sciences/geography/download-geographical-names-data/9576,,,,,
IADNT,,Canada,Province - Alberta,,,51.1505556,,-115.9891667,Ball Range,,https://natural-resources.canada.ca/earth-sciences/geography/download-geographical-names-data/9577,,,,,
IACXS,,Canada,Province - Alberta,,,53.9172223,,-114.5666667,Ballantine,,https://natural-resources.canada.ca/earth-sciences/geography/download-geographical-names-data/9578,,,,,
IACXT,,Canada,Province - Alberta,,,55.5769444,,-117.1841667,Ballater,,https://natural-resources.canada.ca/earth-sciences/geography/download-geographical-names-data/9579,,,,,
IACXX,,Canada,Province - Alberta,,,53.9197222,,-115.2644444,Balm,,https://natural-resources.canada.ca/earth-sciences/geography/download-geographical-names-data/9580,,,,,
IACYA,,Canada,Province - Alberta,,,53.583333,,-113.45,Balwin,,https://natural-resources.canada.ca/earth-sciences/geography/download-geographical-names-data/9581,,,,,
IACYB,,Canada,Province - Alberta,,,51.2133334,,-114.0094444,Balzac,,https://natural-resources.canada.ca/earth-sciences/geography/download-geographical-names-data/9582,,,,,
IACYC,,Canada,Province - Alberta,,,54.7197222,,-113.8358333,Banana Lake,,https://natural-resources.canada.ca/earth-sciences/geography/download-geographical-names-data/9583,,,,,
IACYD,,Canada,Province - Alberta,,,50.7183333,,-114.9180556,Banded Peak,,https://natural-resources.canada.ca/earth-sciences/geography/download-geographical-names-data/9584,,,,,
IACYE,,Canada,Province - Alberta,,,51.1777778,,-115.5736111,Banff,,https://natural-resources.canada.ca/earth-sciences/geography/download-geographical-names-data/9585,,,,,
IATZH,,Canada,Province - Alberta,,,51.6,,-116.05,Banff National Park of Canada,,https://natural-resources.canada.ca/earth-sciences/geography/download-geographical-names-data/9586,,,,,
IATZX,,Canada,Province - Alberta,,,51.173333,,-115.57222,Banff Park Museum National Historic Site of Canada,,https://natural-resources.canada.ca/earth-sciences/geography/download-geographical-names-data/9587,,,,,
IACYF,,Canada,Province - Alberta,,,51.066667,,-114.11667,Banff Trail,,https://natural-resources.canada.ca/earth-sciences/geography/download-geographical-names-data/9588,,,,,
IARXJ,,Canada,Province - Alberta,,,51.213056,,-115.53444,Banff Training Area,,https://natural-resources.canada.ca/earth-sciences/geography/download-geographical-names-data/9589,,,,,
IACYG,,Canada,Province - Alberta,,,54.1561111,,-111.0338889,Bangs Lake,,https://natural-resources.canada.ca/earth-sciences/geography/download-geographical-names-data/9590,,,,,
IADNU,,Canada,Province - Alberta,,,54.5705556,,-110.2347222,Bank Bay,,https://natural-resources.canada.ca/earth-sciences/geography/download-geographical-names-data/9591,,,,,
IACYH,,Canada,Province - Alberta,,,54.0252778,,-119.7838889,Bank Creek,,https://natural-resources.canada.ca/earth-sciences/geography/download-geographical-names-data/9592,,,,,
IACYI,,Canada,Province - Alberta,,,51.6616667,,-115.3086111,Bankfoot Creek,,https://natural-resources.canada.ca/earth-sciences/geography/download-geographical-names-data/9593,,,,,
IACYJ,,Canada,Province - Alberta,,,51.2075,,-115.5347222,Bankhead,,https://natural-resources.canada.ca/earth-sciences/geography/download-geographical-names-data/9594,,,,,
IACYK,,Canada,Province - Alberta,,,53.7472223,,-113.5375,Banko Junction,,https://natural-resources.canada.ca/earth-sciences/geography/download-geographical-names-data/9595,,,,,
IACYM,,Canada,Province - Alberta,,,51.033333,,-114.1,Bankview,,https://natural-resources.canada.ca/earth-sciences/geography/download-geographical-names-data/9596,,,,,
IATRR,,Canada,Province - Alberta,,,53.598611,,-113.375,Bannerman,,https://natural-resources.canada.ca/earth-sciences/geography/download-geographical-names-data/9597,,,,,
IACYN,,Canada,Province - Alberta,,,50.4938889,,-111.7333333,Bantry,,https://natural-resources.canada.ca/earth-sciences/geography/download-geographical-names-data/9598,,,,,
IACYP,,Canada,Province - Alberta,,,54.7666667,,-113.4558333,Baptiste Creek,,https://natural-resources.canada.ca/earth-sciences/geography/download-geographical-names-data/9599,,,,,
IACYQ,,Canada,Province - Alberta,,,54.74,,-113.5366667,Baptiste Lake,,https://natural-resources.canada.ca/earth-sciences/geography/download-geographical-names-data/9600,,,,,
IADNV,,Canada,Province - Alberta,,,54.7566667,,-113.5605556,Baptiste Lake,,https://natural-resources.canada.ca/earth-sciences/geography/download-geographical-names-data/9601,,,,,
IACYS,,Canada,Province - Alberta,,,52.658472,,-115.301167,Baptiste River,,https://natural-resources.canada.ca/earth-sciences/geography/download-geographical-names-data/9602,,,,,
IACYT,,Canada,Province - Alberta,,,52.6736111,,-115.075,Baptiste River,,https://natural-resources.canada.ca/earth-sciences/geography/download-geographical-names-data/9603,,,,,
IATZZ,,Canada,Province - Alberta,,,50.420278,,-114.24444,Bar U Ranch National Historic Site of Canada,,https://natural-resources.canada.ca/earth-sciences/geography/download-geographical-names-data/9604,,,,,
IATSG,,Canada,Province - Alberta,,,53.606944,,-113.53472,Baranow,,https://natural-resources.canada.ca/earth-sciences/geography/download-geographical-names-data/9605,,,,,
IACYW,,Canada,Province - Alberta,,,53.6347222,,-117.7094444,Barbara Creek,,https://natural-resources.canada.ca/earth-sciences/geography/download-geographical-names-data/9606,,,,,
IACYX,,Canada,Province - Alberta,,,54.5305555,,-110.8691667,Barbara Lake,,https://natural-resources.canada.ca/earth-sciences/geography/download-geographical-names-data/9607,,,,,
IACYY,,Canada,Province - Alberta,,,58.1033333,,-110.8591667,Barber Lake,,https://natural-resources.canada.ca/earth-sciences/geography/download-geographical-names-data/9608,,,,,
IACYZ,,Canada,Province - Alberta,,,51.7466667,,-116.6163889,Barbette Glacier,,https://natural-resources.canada.ca/earth-sciences/geography/download-geographical-names-data/9609,,,,,
IACZA,,Canada,Province - Alberta,,,51.725,,-116.616667,Barbette Mountain,,https://natural-resources.canada.ca/earth-sciences/geography/download-geographical-names-data/9610,,,,,
IACZC,,Canada,Province - Alberta,,,53.8166667,,-114.0166667,Bard Lake,,https://natural-resources.canada.ca/earth-sciences/geography/download-geographical-names-data/9611,,,,,
IACZD,,Canada,Province - Alberta,,,53.2986111,,-112.6875,Bardo,,https://natural-resources.canada.ca/earth-sciences/geography/download-geographical-names-data/9612,,,,,
IACZE,,Canada,Province - Alberta,,,49.2344444,,-110.0144444,Bare Creek,,https://natural-resources.canada.ca/earth-sciences/geography/download-geographical-names-data/9613,,,,,
IACZF,,Canada,Province - Alberta,,,51.58,,-115.731111,Bare Range,,https://natural-resources.canada.ca/earth-sciences/geography/download-geographical-names-data/9614,,,,,
IACZG,,Canada,Province - Alberta,,,51.5480555,,-113.4730556,Bargrave,,https://natural-resources.canada.ca/earth-sciences/geography/download-geographical-names-data/9615,,,,,
IACZH,,Canada,Province - Alberta,,,54.1805556,,-112.6266667,Barich,,https://natural-resources.canada.ca/earth-sciences/geography/download-geographical-names-data/9616,,,,,
IACZJ,,Canada,Province - Alberta,,,53.3722222,,-116.8722222,Baril Creek,,https://natural-resources.canada.ca/earth-sciences/geography/download-geographical-names-data/9617,,,,,
IACZI,,Canada,Province - Alberta,,,50.3625,,-114.6361111,Baril Creek,,https://natural-resources.canada.ca/earth-sciences/geography/download-geographical-names-data/9618,,,,,
IACZK,,Canada,Province - Alberta,,,58.7652778,,-111.6855556,Baril Lake,,https://natural-resources.canada.ca/earth-sciences/geography/download-geographical-names-data/9619,,,,,
IACZL,,Canada,Province - Alberta,,,50.2994444,,-114.7563889,Baril Peak,,https://natural-resources.canada.ca/earth-sciences/geography/download-geographical-names-data/9620,,,,,
IACZM,,Canada,Province - Alberta,,,58.9161111,,-111.7405556,Baril River,,https://natural-resources.canada.ca/earth-sciences/geography/download-geographical-names-data/9621,,,,,
IADNW,,Canada,Province - Alberta,,,50.9019444,,-112.3527778,Barkenhouse Lake,,https://natural-resources.canada.ca/earth-sciences/geography/download-geographical-names-data/9622,,,,,
IACZN,,Canada,Province - Alberta,,,53.05,,-112.8166667,Barlee Junction,,https://natural-resources.canada.ca/earth-sciences/geography/download-geographical-names-data/9623,,,,,
IACZO,,Canada,Province - Alberta,,,51.0080555,,-113.9633333,Barlow,,https://natural-resources.canada.ca/earth-sciences/geography/download-geographical-names-data/9624,,,,,
IACZQ,,Canada,Province - Alberta,,,49.3652778,,-114.3447222,Barnaby Creek,,https://natural-resources.canada.ca/earth-sciences/geography/download-geographical-names-data/9625,,,,,
IACZR,,Canada,Province - Alberta,,,49.3380555,,-114.3819444,Barnaby Lake,,https://natural-resources.canada.ca/earth-sciences/geography/download-geographical-names-data/9626,,,,,
IAGDE,,Canada,Province - Alberta,,,49.3,,-114.3666667,Barnaby Ridge,,https://natural-resources.canada.ca/earth-sciences/geography/download-geographical-names-data/9627,,,,,
IACZS,,Canada,Province - Alberta,,,51.7430556,,-116.9458333,Barnard Dent Group,,https://natural-resources.canada.ca/earth-sciences/geography/download-geographical-names-data/9628,,,,,
IACZU,,Canada,Province - Alberta,,,54.7925,,-111.8266667,Barnegat,,https://natural-resources.canada.ca/earth-sciences/geography/download-geographical-names-data/9629,,,,,
IACZW,,Canada,Province - Alberta,,,51.0580556,,-114.6755556,Barnes Ridge,,https://natural-resources.canada.ca/earth-sciences/geography/download-geographical-names-data/9630,,,,,
IACZY,,Canada,Province - Alberta,,,52.2619444,,-112.5813889,Barnett Lake,,https://natural-resources.canada.ca/earth-sciences/geography/download-geographical-names-data/9631,,,,,
IACZZ,,Canada,Province - Alberta,,,52.4897222,,-113.745,Barnett Lake,,https://natural-resources.canada.ca/earth-sciences/geography/download-geographical-names-data/9632,,,,,
IACZX,,Canada,Province - Alberta,,,51.0719444,,-113.2333333,Barnett Lake,,https://natural-resources.canada.ca/earth-sciences/geography/download-geographical-names-data/9633,,,,,
IADAA,,Canada,Province - Alberta,,,49.7605556,,-112.2633333,Barnwell,,https://natural-resources.canada.ca/earth-sciences/geography/download-geographical-names-data/9634,,,,,
IADAB,,Canada,Province - Alberta,,,49.9966667,,-113.0830556,Barons,,https://natural-resources.canada.ca/earth-sciences/geography/download-geographical-names-data/9635,,,,,
IADKU,,Canada,Province - Alberta,,,55.1866667,,-119.9008333,Barr Creek,,https://natural-resources.canada.ca/earth-sciences/geography/download-geographical-names-data/9636,,,,,
IADKW,,Canada,Province - Alberta,,,54.2744445,,-110.695,Barreyre Lake,,https://natural-resources.canada.ca/earth-sciences/geography/download-geographical-names-data/9637,,,,,
IADKX,,Canada,Province - Alberta,,,54.1216667,,-114.4036111,Barrhead,,https://natural-resources.canada.ca/earth-sciences/geography/download-geographical-names-data/9638,,,,,
IADLA,,Canada,Province - Alberta,,,53.4036111,,-119.4822222,Barricade Mountain,,https://natural-resources.canada.ca/earth-sciences/geography/download-geographical-names-data/9639,,,,,
IAIZA,,Canada,Province - Alberta,,,51.016667,,-115.06667,Barrier Lake,,https://natural-resources.canada.ca/earth-sciences/geography/download-geographical-names-data/9640,,,,,
IADLC,,Canada,Province - Alberta,,,51.6575,,-115.6169444,Barrier Mountain,,https://natural-resources.canada.ca/earth-sciences/geography/download-geographical-names-data/9641,,,,,
IAIZB,,Canada,Province - Alberta,,,59.2508334,,-111.2247222,Barrow Lake,,https://natural-resources.canada.ca/earth-sciences/geography/download-geographical-names-data/9642,,,,,
IADLD,,Canada,Province - Alberta,,,51.8441666,,-114.9316667,Barry Creek,,https://natural-resources.canada.ca/earth-sciences/geography/download-geographical-names-data/9643,,,,,
IADLE,,Canada,Province - Alberta,,,51.1152778,,-111.4527778,Bartman Reservoir,,https://natural-resources.canada.ca/earth-sciences/geography/download-geographical-names-data/9644,,,,,
IARAT,,Canada,Province - Alberta,,,54.035,,-114.5672222,Barton Lake,,https://natural-resources.canada.ca/earth-sciences/geography/download-geographical-names-data/9645,,,,,
IADLF,,Canada,Province - Alberta,,,55.3941667,,-116.9319444,Bartsch Creek,,https://natural-resources.canada.ca/earth-sciences/geography/download-geographical-names-data/9646,,,,,
IADLG,,Canada,Province - Alberta,,,50.8780556,,-113.1661111,Bartstow,,https://natural-resources.canada.ca/earth-sciences/geography/download-geographical-names-data/9647,,,,,
IAIZC,,Canada,Province - Alberta,,,55.6491667,,-111.845,Base Lake,,https://natural-resources.canada.ca/earth-sciences/geography/download-geographical-names-data/9648,,,,,
IADLJ,,Canada,Province - Alberta,,,52.2069445,,-115.1927778,Base Line Creek,,https://natural-resources.canada.ca/earth-sciences/geography/download-geographical-names-data/9649,,,,,
IADLM,,Canada,Province - Alberta,,,54.2375,,-119.845,Base Line Lake,,https://natural-resources.canada.ca/earth-sciences/geography/download-geographical-names-data/9650,,,,,
IAAGW,,Canada,Province - Alberta,,,54.4075,,-110.27556,Base des Forces canadiennes Cold Lake,,https://natural-resources.canada.ca/earth-sciences/geography/download-geographical-names-data/9651,,,,,
IAAHI,,Canada,Province - Alberta,,,50.2733334,,-111.175,Base des Forces canadiennes Suffield,,https://natural-resources.canada.ca/earth-sciences/geography/download-geographical-names-data/9652,,,,,
IADLK,,Canada,Province - Alberta,,,53.5322223,,-117.3505556,Baseline Creek,,https://natural-resources.canada.ca/earth-sciences/geography/download-geographical-names-data/9653,,,,,
IADLL,,Canada,Province - Alberta,,,54.2338889,,-115.9136111,Baseline Lake,,https://natural-resources.canada.ca/earth-sciences/geography/download-geographical-names-data/9654,,,,,
IATCC,,Canada,Province - Alberta,,,56.68,,-113.2341667,Baseline Lake,,https://natural-resources.canada.ca/earth-sciences/geography/download-geographical-names-data/9655,,,,,
IADLN,,Canada,Province - Alberta,,,52.1333333,,-115.4291667,Baseline Mountain,,https://natural-resources.canada.ca/earth-sciences/geography/download-geographical-names-data/9656,,,,,
IADLO,,Canada,Province - Alberta,,,52.5830555,,-112.9702778,Bashaw,,https://natural-resources.canada.ca/earth-sciences/geography/download-geographical-names-data/9657,,,,,
IADLP,,Canada,Province - Alberta,,,52.8055556,,-118.3422222,Basilica Mountain,,https://natural-resources.canada.ca/earth-sciences/geography/download-geographical-names-data/9658,,,,,
IADLQ,,Canada,Province - Alberta,,,50.7875,,-112.4683333,Bassano,,https://natural-resources.canada.ca/earth-sciences/geography/download-geographical-names-data/9659,,,,,
IADLT,,Canada,Province - Alberta,,,58.3194444,,-118.4777778,Basset Lake,,https://natural-resources.canada.ca/earth-sciences/geography/download-geographical-names-data/9660,,,,,
IADLU,,Canada,Province - Alberta,,,52.7097222,,-118.345,Bastion Peak,,https://natural-resources.canada.ca/earth-sciences/geography/download-geographical-names-data/9661,,,,,
IADME,,Canada,Province - Alberta,,,56.3,,-114.95,Bat Lake,,https://natural-resources.canada.ca/earth-sciences/geography/download-geographical-names-data/9662,,,,,
IADMD,,Canada,Province - Alberta,,,54.6483333,,-111.9761111,Bat Lake,,https://natural-resources.canada.ca/earth-sciences/geography/download-geographical-names-data/9663,,,,,
IADMC,,Canada,Province - Alberta,,,53.2252778,,-114.5338889,Bat Lake,,https://natural-resources.canada.ca/earth-sciences/geography/download-geographical-names-data/9664,,,,,
IADLV,,Canada,Province - Alberta,,,51.0380555,,-114.8127778,Bateman Creek,,https://natural-resources.canada.ca/earth-sciences/geography/download-geographical-names-data/9665,,,,,
IADLW,,Canada,Province - Alberta,,,51.0905556,,-114.5938889,Bateman Ridge,,https://natural-resources.canada.ca/earth-sciences/geography/download-geographical-names-data/9666,,,,,
IADLX,,Canada,Province - Alberta,,,54.2047222,,-110.025,Bates Lake,,https://natural-resources.canada.ca/earth-sciences/geography/download-geographical-names-data/9667,,,,,
IADLY,,Canada,Province - Alberta,,,51.4408333,,-116.2077778,Bath Creek,,https://natural-resources.canada.ca/earth-sciences/geography/download-geographical-names-data/9668,,,,,
IADMA,,Canada,Province - Alberta,,,51.5166666,,-116.3833333,Bath Glacier,,https://natural-resources.canada.ca/earth-sciences/geography/download-geographical-names-data/9669,,,,,
IADMG,,Canada,Province - Alberta,,,52.8422222,,-110.6555556,Battensby Lake,,https://natural-resources.canada.ca/earth-sciences/geography/download-geographical-names-data/9670,,,,,
IADMH,,Canada,Province - Alberta,,,51.6366667,,-111.8227778,Batter Junction,,https://natural-resources.canada.ca/earth-sciences/geography/download-geographical-names-data/9671,,,,,
IADMJ,,Canada,Province - Alberta,,,52.4488889,,-111.4452778,Battle Bend,,https://natural-resources.canada.ca/earth-sciences/geography/download-geographical-names-data/9672,,,,,
IADMK,,Canada,Province - Alberta,,,52.7094444,,-111.1419444,Battle Butte,,https://natural-resources.canada.ca/earth-sciences/geography/download-geographical-names-data/9673,,,,,
IAIZZ,,Canada,Province - Alberta,,,49.6483333,,-110.005,Battle Creek,,https://natural-resources.canada.ca/earth-sciences/geography/download-geographical-names-data/9674,,,,,
IADML,,Canada,Province - Alberta,,,52.9833333,,-114.2386111,Battle Creek,,https://natural-resources.canada.ca/earth-sciences/geography/download-geographical-names-data/9675,,,,,
IADMM,,Canada,Province - Alberta,,,52.9683333,,-114.1891667,Battle Lake,,https://natural-resources.canada.ca/earth-sciences/geography/download-geographical-names-data/9676,,,,,
IADMN,,Canada,Province - Alberta,,,52.9602778,,-114.1219444,Battle Lake,,https://natural-resources.canada.ca/earth-sciences/geography/download-geographical-names-data/9677,,,,,
IARTK,,Canada,Province - Alberta,,,52.8572222,,-110,Battle River,,https://natural-resources.canada.ca/earth-sciences/geography/download-geographical-names-data/9678,,,,,
IADMP,,Canada,Province - Alberta,,,52.2316667,,-111.9333333,Battle River,,https://natural-resources.canada.ca/earth-sciences/geography/download-geographical-names-data/9679,,,,,
IADMV,,Canada,Province - Alberta,,,54.1047222,,-111.6061111,Batty Lake,,https://natural-resources.canada.ca/earth-sciences/geography/download-geographical-names-data/9680,,,,,
IATRZ,,Canada,Province - Alberta,,,53.633333,,-113.50139,Baturyn,,https://natural-resources.canada.ca/earth-sciences/geography/download-geographical-names-data/9681,,,,,
IASTW,,Canada,Province - Alberta,,,53.2844445,,-111.0494444,Bauer's Lake,,https://natural-resources.canada.ca/earth-sciences/geography/download-geographical-names-data/9682,,,,,
IADMX,,Canada,Province - Alberta,,,49.1255556,,-114.0202778,Bauerman Creek,,https://natural-resources.canada.ca/earth-sciences/geography/download-geographical-names-data/9683,,,,,
IAKEQ,,Canada,Province - Alberta,,,52.9194444,,-112.466111,Bawlf,,https://natural-resources.canada.ca/earth-sciences/geography/download-geographical-names-data/9684,,,,,
IADNE,,Canada,Province - Alberta,,,52.9058333,,-110.7216667,Baxter Lakes,,https://natural-resources.canada.ca/earth-sciences/geography/download-geographical-names-data/9685,,,,,
IADNC,,Canada,Province - Alberta,,,55.825,,-119.9061111,Bay Tree,,https://natural-resources.canada.ca/earth-sciences/geography/download-geographical-names-data/9686,,,,,
IADMZ,,Canada,Province - Alberta,,,57.7694445,,-112.4011111,Bayard Lake,,https://natural-resources.canada.ca/earth-sciences/geography/download-geographical-names-data/9687,,,,,
IADNA,,Canada,Province - Alberta,,,51.2730555,,-114.7905556,Baymar Creek,,https://natural-resources.canada.ca/earth-sciences/geography/download-geographical-names-data/9688,,,,,
IADNB,,Canada,Province - Alberta,,,59.9338889,,-110.3036111,Bayonet Lake,,https://natural-resources.canada.ca/earth-sciences/geography/download-geographical-names-data/9689,,,,,
IADND,,Canada,Province - Alberta,,,50.966667,,-114.1,Bayview,,https://natural-resources.canada.ca/earth-sciences/geography/download-geographical-names-data/9690,,,,,
IADNZ,,Canada,Province - Alberta,,,53.5416666,,-114.1219444,Beach Corner,,https://natural-resources.canada.ca/earth-sciences/geography/download-geographical-names-data/9691,,,,,
IADOA,,Canada,Province - Alberta,,,54.1797223,,-111.1525,Beacon Corner,,https://natural-resources.canada.ca/earth-sciences/geography/download-geographical-names-data/9692,,,,,
IATRE,,Canada,Province - Alberta,,,53.573611,,-113.40694,Beacon Heights,,https://natural-resources.canada.ca/earth-sciences/geography/download-geographical-names-data/9693,,,,,
IADOC,,Canada,Province - Alberta,,,52.5397222,,-118.2730556,Beacon Lake,,https://natural-resources.canada.ca/earth-sciences/geography/download-geographical-names-data/9694,,,,,
IADOE,,Canada,Province - Alberta,,,52.5402777,,-118.2422222,Beacon Peak,,https://natural-resources.canada.ca/earth-sciences/geography/download-geographical-names-data/9695,,,,,
IAJAA,,Canada,Province - Alberta,,,50.0669444,,-114.2511111,Beagle Creek,,https://natural-resources.canada.ca/earth-sciences/geography/download-geographical-names-data/9696,,,,,
IADOI,,Canada,Province - Alberta,,,56.2172222,,-119.8186111,Bear Canyon,,https://natural-resources.canada.ca/earth-sciences/geography/download-geographical-names-data/9697,,,,,
IADOJ,,Canada,Province - Alberta,,,49.1508333,,-111.2052778,Bear Creek,,https://natural-resources.canada.ca/earth-sciences/geography/download-geographical-names-data/9698,,,,,
IADOO,,Canada,Province - Alberta,,,53.98,,-119.8411111,Bear Creek,,https://natural-resources.canada.ca/earth-sciences/geography/download-geographical-names-data/9699,,,,,
IADOK,,Canada,Province - Alberta,,,50.3505556,,-114.4577778,Bear Creek,,https://natural-resources.canada.ca/earth-sciences/geography/download-geographical-names-data/9700,,,,,
IADON,,Canada,Province - Alberta,,,51.6480556,,-115.1825,Bear Creek,,https://natural-resources.canada.ca/earth-sciences/geography/download-geographical-names-data/9701,,,,,
IADOR,,Canada,Province - Alberta,,,54.3911111,,-116.0622222,Bear Creek,,https://natural-resources.canada.ca/earth-sciences/geography/download-geographical-names-data/9702,,,,,
IADOT,,Canada,Province - Alberta,,,52.8563889,,-113.5355556,Bear Hills,,https://natural-resources.canada.ca/earth-sciences/geography/download-geographical-names-data/9703,,,,,
IADYR,,Canada,Province - Alberta,,,55.2516667,,-118.9958333,Bear Lake,,https://natural-resources.canada.ca/earth-sciences/geography/download-geographical-names-data/9704,,,,,
IADYL,,Canada,Province - Alberta,,,55.2802778,,-118.9736111,Bear Lake,,https://natural-resources.canada.ca/earth-sciences/geography/download-geographical-names-data/9705,,,,,
IAQSE,,Canada,Province - Alberta,,,53.7444444,,-116.1522222,Bear Lake,,https://natural-resources.canada.ca/earth-sciences/geography/download-geographical-names-data/9706,,,,,
IADYQ,,Canada,Province - Alberta,,,54.2244444,,-114.8730556,Bear Lake,,https://natural-resources.canada.ca/earth-sciences/geography/download-geographical-names-data/9707,,,,,
IADYN,,Canada,Province - Alberta,,,54.0205555,,-110.2272222,Bear Lake,,https://natural-resources.canada.ca/earth-sciences/geography/download-geographical-names-data/9708,,,,,
IASTU,,Canada,Province - Alberta,,,50.2183333,,-114.4305556,Bear Pond,,https://natural-resources.canada.ca/earth-sciences/geography/download-geographical-names-data/9709,,,,,
IADYT,,Canada,Province - Alberta,,,58.3308333,,-115.4138889,Bear River,,https://natural-resources.canada.ca/earth-sciences/geography/download-geographical-names-data/9710,,,,,
IADYS,,Canada,Province - Alberta,,,55.1080556,,-118.4727778,Bear River,,https://natural-resources.canada.ca/earth-sciences/geography/download-geographical-names-data/9711,,,,,
IARFB,,Canada,Province - Alberta,,,55.2841667,,-119.035,Bear River,,https://natural-resources.canada.ca/earth-sciences/geography/download-geographical-names-data/9712,,,,,
IADYZ,,Canada,Province - Alberta,,,51.6394444,,-114.7288889,Bear Valley,,https://natural-resources.canada.ca/earth-sciences/geography/download-geographical-names-data/9713,,,,,
IADOF,,Canada,Province - Alberta,,,51.8538889,,-114.9230556,Bearberry,,https://natural-resources.canada.ca/earth-sciences/geography/download-geographical-names-data/9714,,,,,
IADOG,,Canada,Province - Alberta,,,51.7994444,,-114.635,Bearberry Creek,,https://natural-resources.canada.ca/earth-sciences/geography/download-geographical-names-data/9715,,,,,
IADOH,,Canada,Province - Alberta,,,51.7791667,,-114.7752778,Bearberry Prairie,,https://natural-resources.canada.ca/earth-sciences/geography/download-geographical-names-data/9716,,,,,
IADOS,,Canada,Province - Alberta,,,56.0236111,,-116.9713889,Bearhead Creek,,https://natural-resources.canada.ca/earth-sciences/geography/download-geographical-names-data/9717,,,,,
IADYJ,,Canada,Province - Alberta,,,52.9386111,,-113.6138889,Bearhills Lake,,https://natural-resources.canada.ca/earth-sciences/geography/download-geographical-names-data/9718,,,,,
IADYW,,Canada,Province - Alberta,,,49.0658334,,-113.9161111,Bears Hump,,https://natural-resources.canada.ca/earth-sciences/geography/download-geographical-names-data/9719,,,,,
IATPG,,Canada,Province - Alberta,,,53.441667,,-113.5,Bearspaw,,https://natural-resources.canada.ca/earth-sciences/geography/download-geographical-names-data/9720,,,,,
IADYX,,Canada,Province - Alberta,,,51.1377778,,-114.3102778,Bearspaw,,https://natural-resources.canada.ca/earth-sciences/geography/download-geographical-names-data/9721,,,,,
IADYY,,Canada,Province - Alberta,,,54.2041667,,-110.5372222,Beartrap Lake,,https://natural-resources.canada.ca/earth-sciences/geography/download-geographical-names-data/9722,,,,,
IADZA,,Canada,Province - Alberta,,,56.5194444,,-117.6844444,Beaton Creek,,https://natural-resources.canada.ca/earth-sciences/geography/download-geographical-names-data/9723,,,,,
IADZB,,Canada,Province - Alberta,,,52.8805556,,-117.5225,Beatty Creek,,https://natural-resources.canada.ca/earth-sciences/geography/download-geographical-names-data/9724,,,,,
IADZC,,Canada,Province - Alberta,,,59.8605555,,-118.0522222,Beatty Lake,,https://natural-resources.canada.ca/earth-sciences/geography/download-geographical-names-data/9725,,,,,
IATYN,,Canada,Province - Alberta,,,58.219444,,-110.01111,Beatty River,,https://natural-resources.canada.ca/earth-sciences/geography/download-geographical-names-data/9726,,,,,
IAQOH,,Canada,Province - Alberta,,,50.3955556,,-114.4686111,Beaudry Lakes,,https://natural-resources.canada.ca/earth-sciences/geography/download-geographical-names-data/9727,,,,,
IATSB,,Canada,Province - Alberta,,,53.601389,,-113.50139,Beaumaris,,https://natural-resources.canada.ca/earth-sciences/geography/download-geographical-names-data/9728,,,,,
IADZF,,Canada,Province - Alberta,,,53.3525,,-113.4152778,Beaumont,,https://natural-resources.canada.ca/earth-sciences/geography/download-geographical-names-data/9729,,,,,
IADZG,,Canada,Province - Alberta,,,51.2161111,,-114.6127778,Beaupré Creek,,https://natural-resources.canada.ca/earth-sciences/geography/download-geographical-names-data/9730,,,,,
IADZH,,Canada,Province - Alberta,,,51.2683333,,-114.6813889,Beaupré Hill,,https://natural-resources.canada.ca/earth-sciences/geography/download-geographical-names-data/9731,,,,,
IADZI,,Canada,Province - Alberta,,,51.2394444,,-114.6672222,Beaupré Lake,,https://natural-resources.canada.ca/earth-sciences/geography/download-geographical-names-data/9732,,,,,
IADZK,,Canada,Province - Alberta,,,52.3219444,,-117.3252778,Beauty Creek,,https://natural-resources.canada.ca/earth-sciences/geography/download-geographical-names-data/9733,,,,,
IADZL,,Canada,Province - Alberta,,,49.4086111,,-114.0997222,Beauvais Lake,,https://natural-resources.canada.ca/earth-sciences/geography/download-geographical-names-data/9734,,,,,
IAADM,,Canada,Province - Alberta,,,49.4141667,,-114.115,Beauvais Lake Provincial Park,,https://natural-resources.canada.ca/earth-sciences/geography/download-geographical-names-data/9735,,,,,
IADZM,,Canada,Province - Alberta,,,53.6588889,,-111.3661111,Beauvallon,,https://natural-resources.canada.ca/earth-sciences/geography/download-geographical-names-data/9736,,,,,
IASKZ,,Canada,Province - Alberta,,,53.6494444,,-111.3822222,Beauvallon Lake,,https://natural-resources.canada.ca/earth-sciences/geography/download-geographical-names-data/9737,,,,,
IADZN,,Canada,Province - Alberta,,,52.8830556,,-118.0597222,Beauvert Lake,,https://natural-resources.canada.ca/earth-sciences/geography/download-geographical-names-data/9738,,,,,
IASPA,,Canada,Province - Alberta,,,53.67,,-112.8386111,Beaver Bay,,https://natural-resources.canada.ca/earth-sciences/geography/download-geographical-names-data/9739,,,,,
IADZQ,,Canada,Province - Alberta,,,53.2041666,,-118.0663889,Beaver Bluffs,,https://natural-resources.canada.ca/earth-sciences/geography/download-geographical-names-data/9740,,,,,
IATWR,,Canada,Province - Alberta,,,53.2497222,,-112.185,Beaver County,,https://natural-resources.canada.ca/earth-sciences/geography/download-geographical-names-data/9741,,,,,
IADZR,,Canada,Province - Alberta,,,49.6294444,,-113.7,Beaver Creek,,https://natural-resources.canada.ca/earth-sciences/geography/download-geographical-names-data/9742,,,,,
IADZW,,Canada,Province - Alberta,,,54.0061111,,-116.8366667,Beaver Creek,,https://natural-resources.canada.ca/earth-sciences/geography/download-geographical-names-data/9743,,,,,
IADZS,,Canada,Province - Alberta,,,50.3305555,,-114.3269444,Beaver Creek,,https://natural-resources.canada.ca/earth-sciences/geography/download-geographical-names-data/9744,,,,,
IADZV,,Canada,Province - Alberta,,,52.0644445,,-114.6819444,Beaver Creek,,https://natural-resources.canada.ca/earth-sciences/geography/download-geographical-names-data/9745,,,,,
IAQLL,,Canada,Province - Alberta,,,54.1527778,,-115.6875,Beaver Creek,,https://natural-resources.canada.ca/earth-sciences/geography/download-geographical-names-data/9746,,,,,
IASPC,,Canada,Province - Alberta,,,52.8477777,,-117.7219444,Beaver Creek,,https://natural-resources.canada.ca/earth-sciences/geography/download-geographical-names-data/9747,,,,,
IADZT,,Canada,Province - Alberta,,,50.0941667,,-114.4361111,Beaver Creek,,https://natural-resources.canada.ca/earth-sciences/geography/download-geographical-names-data/9748,,,,,
IADZX,,Canada,Province - Alberta,,,54.3605555,,-110.2066667,Beaver Crossing,,https://natural-resources.canada.ca/earth-sciences/geography/download-geographical-names-data/9749,,,,,
IAEAG,,Canada,Province - Alberta,,,52.6180556,,-116.3388889,Beaver Flat,,https://natural-resources.canada.ca/earth-sciences/geography/download-geographical-names-data/9750,,,,,
IAEAL,,Canada,Province - Alberta,,,59.0455555,,-113.1611111,Beaver Indian River,,https://natural-resources.canada.ca/earth-sciences/geography/download-geographical-names-data/9751,,,,,
IAEAQ,,Canada,Province - Alberta,,,52.8675,,-117.7247222,Beaver Lake,,https://natural-resources.canada.ca/earth-sciences/geography/download-geographical-names-data/9752,,,,,
IASYX,,Canada,Province - Alberta,,,56.9775,,-111.5961111,Beaver Lake,,https://natural-resources.canada.ca/earth-sciences/geography/download-geographical-names-data/9753,,,,,
IAEAM,,Canada,Province - Alberta,,,54.7602778,,-111.9097222,Beaver Lake,,https://natural-resources.canada.ca/earth-sciences/geography/download-geographical-names-data/9754,,,,,
IAEAR,,Canada,Province - Alberta,,,54.7058334,,-111.8163889,Beaver Lake,,https://natural-resources.canada.ca/earth-sciences/geography/download-geographical-names-data/9755,,,,,
IAEAP,,Canada,Province - Alberta,,,52.0063889,,-114.7880556,Beaver Lake,,https://natural-resources.canada.ca/earth-sciences/geography/download-geographical-names-data/9756,,,,,
IAUDN,,Canada,Province - Alberta,,,54.6686111,,-111.8713889,Beaver Lake 131,,https://natural-resources.canada.ca/earth-sciences/geography/download-geographical-names-data/9757,,,,,
IAEAW,,Canada,Province - Alberta,,,49.4566667,,-114.1972222,Beaver Mines,,https://natural-resources.canada.ca/earth-sciences/geography/download-geographical-names-data/9758,,,,,
IAEAX,,Canada,Province - Alberta,,,49.4838889,,-114.1430556,Beaver Mines Creek,,https://natural-resources.canada.ca/earth-sciences/geography/download-geographical-names-data/9759,,,,,
IAEAY,,Canada,Province - Alberta,,,49.3727777,,-114.2969444,Beaver Mines Lake,,https://natural-resources.canada.ca/earth-sciences/geography/download-geographical-names-data/9760,,,,,
IAUCL,,Canada,Province - Alberta,,,58.4358333,,-115.7425,Beaver Ranch 163,,https://natural-resources.canada.ca/earth-sciences/geography/download-geographical-names-data/9761,,,,,
IZAAB,,Canada,Province - Alberta,,,58.4644644,,-115.7172773,Beaver Ranch 163a,,https://natural-resources.canada.ca/earth-sciences/geography/download-geographical-names-data/9762,,,,,
IZAAC,,Canada,Province - Alberta,,,58.5258813,,-115.7916617,Beaver Ranch 163b,,https://natural-resources.canada.ca/earth-sciences/geography/download-geographical-names-data/9763,,,,,
IAEAZ,,Canada,Province - Alberta,,,58.4397222,,-115.5744444,Beaver Ranch Creek,,https://natural-resources.canada.ca/earth-sciences/geography/download-geographical-names-data/9764,,,,,
IAEBB,,Canada,Province - Alberta,,,54.37,,-110.2661111,Beaver River,,https://natural-resources.canada.ca/earth-sciences/geography/download-geographical-names-data/9765,,,,,
IAEBD,,Canada,Province - Alberta,,,57.1202778,,-111.5997222,Beaver River,,https://natural-resources.canada.ca/earth-sciences/geography/download-geographical-names-data/9766,,,,,
IAEBC,,Canada,Province - Alberta,,,54.2722222,,-110,Beaver River,,https://natural-resources.canada.ca/earth-sciences/geography/download-geographical-names-data/9767,,,,,
IADZY,,Canada,Province - Alberta,,,54.2013889,,-110.3080556,Beaverdam,,https://natural-resources.canada.ca/earth-sciences/geography/download-geographical-names-data/9768,,,,,
IAQSF,,Canada,Province - Alberta,,,51.5569445,,-114.3286111,Beaverdam Creek,,https://natural-resources.canada.ca/earth-sciences/geography/download-geographical-names-data/9769,,,,,
IADZZ,,Canada,Province - Alberta,,,49.8855556,,-114.2533333,Beaverdam Creek,,https://natural-resources.canada.ca/earth-sciences/geography/download-geographical-names-data/9770,,,,,
IAEAB,,Canada,Province - Alberta,,,53.1297223,,-117.1016667,Beaverdam Creek,,https://natural-resources.canada.ca/earth-sciences/geography/download-geographical-names-data/9771,,,,,
IAEAD,,Canada,Province - Alberta,,,54.1322222,,-119.2938889,Beaverdam Creek,,https://natural-resources.canada.ca/earth-sciences/geography/download-geographical-names-data/9772,,,,,
IAEAC,,Canada,Province - Alberta,,,53.5711111,,-119.8030556,Beaverdam Creek,,https://natural-resources.canada.ca/earth-sciences/geography/download-geographical-names-data/9773,,,,,
IAEAF,,Canada,Province - Alberta,,,49.0816667,,-113.6013889,Beaverdam Lake,,https://natural-resources.canada.ca/earth-sciences/geography/download-geographical-names-data/9774,,,,,
IAAUK,,Canada,Province - Alberta,,,53.5766667,,-119.8888889,Beaverdam Pass,,https://natural-resources.canada.ca/earth-sciences/geography/download-geographical-names-data/9775,,,,,
IAEAH,,Canada,Province - Alberta,,,53.8038889,,-112.8627778,Beaverhill,,https://natural-resources.canada.ca/earth-sciences/geography/download-geographical-names-data/9776,,,,,
IAEAI,,Canada,Province - Alberta,,,53.8983333,,-112.95,Beaverhill Creek,,https://natural-resources.canada.ca/earth-sciences/geography/download-geographical-names-data/9777,,,,,
IAEAJ,,Canada,Province - Alberta,,,53.4525,,-112.5355556,Beaverhill Lake,,https://natural-resources.canada.ca/earth-sciences/geography/download-geographical-names-data/9778,,,,,
IAEAU,,Canada,Province - Alberta,,,55.2091667,,-119.4288889,Beaverlodge,,https://natural-resources.canada.ca/earth-sciences/geography/download-geographical-names-data/9779,,,,,
IAEAV,,Canada,Province - Alberta,,,55.0547222,,-119.3608333,Beaverlodge River,,https://natural-resources.canada.ca/earth-sciences/geography/download-geographical-names-data/9780,,,,,
IAJAB,,Canada,Province - Alberta,,,58.15,,-120,Beaverskin Creek,,https://natural-resources.canada.ca/earth-sciences/geography/download-geographical-names-data/9781,,,,,
IAEBG,,Canada,Province - Alberta,,,55.3341666,,-119.6125,Beavertail Creek,,https://natural-resources.canada.ca/earth-sciences/geography/download-geographical-names-data/9782,,,,,
IAEBH,,Canada,Province - Alberta,,,49.115,,-113.4836111,Beazer,,https://natural-resources.canada.ca/earth-sciences/geography/download-geographical-names-data/9783,,,,,
IAEBJ,,Canada,Province - Alberta,,,49.1238889,,-113.4961111,Beazer Ridge,,https://natural-resources.canada.ca/earth-sciences/geography/download-geographical-names-data/9784,,,,,
IAEBK,,Canada,Province - Alberta,,,49.4916667,,-111.4375,Becker Coulee,,https://natural-resources.canada.ca/earth-sciences/geography/download-geographical-names-data/9785,,,,,
IAEBL,,Canada,Province - Alberta,,,51.1522223,,-114.04,Beddington,,https://natural-resources.canada.ca/earth-sciences/geography/download-geographical-names-data/9786,,,,,
IAEBN,,Canada,Province - Alberta,,,51.1416667,,-114.0408333,Beddington Creek,,https://natural-resources.canada.ca/earth-sciences/geography/download-geographical-names-data/9787,,,,,
IATLX,,Canada,Province - Alberta,,,51.129167,,-114.07917,Beddington Heights,,https://natural-resources.canada.ca/earth-sciences/geography/download-geographical-names-data/9788,,,,,
IAEBP,,Canada,Province - Alberta,,,58.3908333,,-116.9075,Bede Creek,,https://natural-resources.canada.ca/earth-sciences/geography/download-geographical-names-data/9789,,,,,
IAEBS,,Canada,Province - Alberta,,,53.28,,-117.9388889,Bedson Ridge,,https://natural-resources.canada.ca/earth-sciences/geography/download-geographical-names-data/9790,,,,,
IATBW,,Canada,Province - Alberta,,,49.0319,,-113.6889,Beebe Flats,,https://natural-resources.canada.ca/earth-sciences/geography/download-geographical-names-data/9791,,,,,
IAEBV,,Canada,Province - Alberta,,,50.0566667,,-114.5919444,Beehive Creek,,https://natural-resources.canada.ca/earth-sciences/geography/download-geographical-names-data/9792,,,,,
IAEBW,,Canada,Province - Alberta,,,50.0655555,,-114.6622222,Beehive Mountain,,https://natural-resources.canada.ca/earth-sciences/geography/download-geographical-names-data/9793,,,,,
IAALA,,Canada,Province - Alberta,,,50.0638889,,-114.6758333,Beehive Pass,,https://natural-resources.canada.ca/earth-sciences/geography/download-geographical-names-data/9794,,,,,
IAEBY,,Canada,Province - Alberta,,,55.2763889,,-110.4275,Behan,,https://natural-resources.canada.ca/earth-sciences/geography/download-geographical-names-data/9795,,,,,
IAECA,,Canada,Province - Alberta,,,55.2861111,,-111.565,Behan Lake,,https://natural-resources.canada.ca/earth-sciences/geography/download-geographical-names-data/9796,,,,,
IAEBZ,,Canada,Province - Alberta,,,51.2641667,,-114.7161111,Behanhouse Creek,,https://natural-resources.canada.ca/earth-sciences/geography/download-geographical-names-data/9797,,,,,
IAECC,,Canada,Province - Alberta,,,51.385,,-113.536111,Beiseker,,https://natural-resources.canada.ca/earth-sciences/geography/download-geographical-names-data/9798,,,,,
