ID,contactDetails,country,description,endDate,function,latitude,locality,longitude,name,postCode,sourceRecordLink,startDate,state,type,url,warning
NPNHS_00077,,Canada,Lieu historique national du Canada Rocky Mountain House,,,,,,Rocky Mountain House,,https://www.lunaris.ca/catalog/dd7e21b7-76e2-54c0-a7a6-497346d4f0bc?locale=en&q=National+Parks+and+National+Historic+Sites,,,National Historic Site of Canada,,
NPNHS_00045,,Canada,Lieu historique national du Canada de Signal Hill,,,,,,Signal Hill,,https://www.lunaris.ca/catalog/dd7e21b7-76e2-54c0-a7a6-497346d4f0bc?locale=en&q=National+Parks+and+National+Historic+Sites,,,National Historic Site of Canada,,
NPNHS_00108,,Canada,Lieu historique national du Canada de La Fourche,,,,,,The Forks,,https://www.lunaris.ca/catalog/dd7e21b7-76e2-54c0-a7a6-497346d4f0bc?locale=en&q=National+Parks+and+National+Historic+Sites,,,National Historic Site of Canada,,
IASNO_1,,Canada,Province or Territory of Alberta,,,52.7086111,,-117.9111111,16 1/2 Mile Lake,,https://natural-resources.canada.ca/earth-sciences/geography/download-geographical-names-data/9245,,,Province,,
IASKY_1,,Canada,Province or Territory of Alberta,,,56.7513889,,-110.525,3 Channels Area,,https://natural-resources.canada.ca/earth-sciences/geography/download-geographical-names-data/9245,,,Province or Territory ,,
IASLL_1,,Canada,Province or Territory of Alberta,,,56.305,,-110.8905556,49 Lake,,https://natural-resources.canada.ca/earth-sciences/geography/download-geographical-names-data/9245,,,Province or Territory ,,
IASLJ_1,,Canada,Province or Territory of Alberta,,,56.3138889,,-110.9436111,51 Lake,,https://natural-resources.canada.ca/earth-sciences/geography/download-geographical-names-data/9245,,,Province or Territory ,,
IASLM_1,,Canada,Province or Territory of Alberta,,,56.3522222,,-110.9894444,54 Lake,,https://natural-resources.canada.ca/earth-sciences/geography/download-geographical-names-data/9245,,,Province or Territory ,,
IASLK_1,,Canada,Province or Territory of Alberta,,,56.3661111,,-110.9938889,55 Lake,,https://natural-resources.canada.ca/earth-sciences/geography/download-geographical-names-data/9245,,,Province or Territory ,,
IAIYX_1,,Canada,Province or Territory of Alberta,,,53.7991667,,-118.7997222,À la Pêche Creek,,https://natural-resources.canada.ca/earth-sciences/geography/download-geographical-names-data/9245,,,Province or Territory ,,
IAIYY_1,,Canada,Province or Territory of Alberta,,,53.7975,,-118.8319444,À la Pêche Lake,,https://natural-resources.canada.ca/earth-sciences/geography/download-geographical-names-data/9245,,,Province or Territory ,,
IARXV_1,,Canada,Province or Territory of Alberta,,,53.7335,,-118.869583,À la Pêche Trail,,https://natural-resources.canada.ca/earth-sciences/geography/download-geographical-names-data/9245,,,Province or Territory ,,
IAPUX_1,,Canada,Province or Territory of Alberta,,,51.05,,-114.93333,Abbeydale,,https://natural-resources.canada.ca/earth-sciences/geography/download-geographical-names-data/9245,,,Province or Territory ,,
IAPUY_1,,Canada,Province or Territory of Alberta,,,51.3638889,,-116.2872222,Abbot Pass,,https://natural-resources.canada.ca/earth-sciences/geography/download-geographical-names-data/9245,,,Province or Territory ,,
IATZR_1,,Canada,Province or Territory of Alberta,,,51.363611,,-116.28917,Abbot Pass Refuge Cabin National Historic Site of Canada,,https://natural-resources.canada.ca/earth-sciences/geography/download-geographical-names-data/9245,,,Province or Territory ,,
IAPVA_1,,Canada,Province or Territory of Alberta,,,53.9172223,,-118.9980556,Abbott Creek,,https://natural-resources.canada.ca/earth-sciences/geography/download-geographical-names-data/9245,,,Province or Territory ,,
IAPUZ_1,,Canada,Province or Territory of Alberta,,,53.566667,,-113.38333,Abbottsfield,,https://natural-resources.canada.ca/earth-sciences/geography/download-geographical-names-data/9245,,,Province or Territory ,,
IAECP_1,,Canada,Province or Territory of Alberta,,,54.2377778,,-113.0277778,Abee,,https://natural-resources.canada.ca/earth-sciences/geography/download-geographical-names-data/9245,,,Province or Territory ,,
IAQVM_1,,Canada,Province or Territory of Alberta,,,51.3847223,,-116.2430556,Aberdeen Glacier,,https://natural-resources.canada.ca/earth-sciences/geography/download-geographical-names-data/9245,,,Province or Territory ,,
IAPVD_1,,Canada,Province or Territory of Alberta,,,54.1083333,,-111.4861111,Abilene,,https://natural-resources.canada.ca/earth-sciences/geography/download-geographical-names-data/9245,,,Province or Territory ,,
IAECR_1,,Canada,Province or Territory of Alberta,,,52.2236111,,-116.4272222,Abraham Lake,,https://natural-resources.canada.ca/earth-sciences/geography/download-geographical-names-data/9245,,,Province or Territory ,,
IAPVF_1,,Canada,Province or Territory of Alberta,,,50.8566667,,-114.0402778,Academy,,https://natural-resources.canada.ca/earth-sciences/geography/download-geographical-names-data/9245,,,Province or Territory ,,
IAPVH_1,,Canada,Province or Territory of Alberta,,,51.2,,-110.4,Acadia,,https://natural-resources.canada.ca/earth-sciences/geography/download-geographical-names-data/9245,,,Province or Territory ,,
IAPVI_1,,Canada,Province or Territory of Alberta,,,51.1569445,,-110.2097222,Acadia Valley,,https://natural-resources.canada.ca/earth-sciences/geography/download-geographical-names-data/9245,,,Province or Territory ,,
IAPVJ_1,,Canada,Province or Territory of Alberta,,,53.5502778,,-113.7747222,Acheson,,https://natural-resources.canada.ca/earth-sciences/geography/download-geographical-names-data/9245,,,Province or Territory ,,
IAPVO_1,,Canada,Province or Territory of Alberta,,,51.4972222,,-113.5086111,Acme,,https://natural-resources.canada.ca/earth-sciences/geography/download-geographical-names-data/9245,,,Province or Territory ,,
IAECS_1,,Canada,Province or Territory of Alberta,,,59.0769444,,-117.7330556,Adair Creek,,https://natural-resources.canada.ca/earth-sciences/geography/download-geographical-names-data/9245,,,Province or Territory ,,
IAPVM_1,,Canada,Province or Territory of Alberta,,,53.6911111,,-118.5530556,Adams Creek,,https://natural-resources.canada.ca/earth-sciences/geography/download-geographical-names-data/9245,,,Province or Territory ,,
IAPVP_1,,Canada,Province or Territory of Alberta,,,53.7472223,,-118.6916667,Adams Creek Trail,,https://natural-resources.canada.ca/earth-sciences/geography/download-geographical-names-data/9245,,,Province or Territory ,,
IBACW_1,,Canada,Province or Territory of Alberta,,,52.0683333,,-114.4847222,Adams Lake,,https://natural-resources.canada.ca/earth-sciences/geography/download-geographical-names-data/9245,,,Province or Territory ,,
IAECT_1,,Canada,Province or Territory of Alberta,,,58.3894444,,-115.0769444,Adams Landing,,https://natural-resources.canada.ca/earth-sciences/geography/download-geographical-names-data/9245,,,Province or Territory ,,
IAPVQ_1,,Canada,Province or Territory of Alberta,,,53.7258333,,-118.5680556,Adams Lookout,,https://natural-resources.canada.ca/earth-sciences/geography/download-geographical-names-data/9245,,,Province or Territory ,,
IAPVR_1,,Canada,Province or Territory of Alberta,,,53.6152778,,-112.9258333,Adamson Lake,,https://natural-resources.canada.ca/earth-sciences/geography/download-geographical-names-data/9245,,,Province or Territory ,,
IAPVS_1,,Canada,Province or Territory of Alberta,,,54.133333,,-119.35,Adelade Creek,,https://natural-resources.canada.ca/earth-sciences/geography/download-geographical-names-data/9245,,,Province or Territory ,,
IAPVT_1,,Canada,Province or Territory of Alberta,,,49.0247222,,-111.2986111,Aden,,https://natural-resources.canada.ca/earth-sciences/geography/download-geographical-names-data/9245,,,Province or Territory ,,
IAPVV_1,,Canada,Province or Territory of Alberta,,,53.8538889,,-119.0633333,Adolphus Creek,,https://natural-resources.canada.ca/earth-sciences/geography/download-geographical-names-data/9245,,,Province or Territory ,,
IAPVW_1,,Canada,Province or Territory of Alberta,,,53.1711111,,-119.1177778,Adolphus Lake,,https://natural-resources.canada.ca/earth-sciences/geography/download-geographical-names-data/9245,,,Province or Territory ,,
IAPVY_1,,Canada,Province or Territory of Alberta,,,53.1141667,,-113.1458333,Adrian Lake,,https://natural-resources.canada.ca/earth-sciences/geography/download-geographical-names-data/9245,,,Province or Territory ,,
IAQPP_1,,Canada,Province or Territory of Alberta,,,57.1852778,,-120.0013889,Adskwatim Creek,,https://natural-resources.canada.ca/earth-sciences/geography/download-geographical-names-data/9245,,,Province or Territory ,,
IAPWA_1,,Canada,Province or Territory of Alberta,,,51.4180556,,-112.6213889,Aerial,,https://natural-resources.canada.ca/earth-sciences/geography/download-geographical-names-data/9245,,,Province or Territory ,,
IAPWB_1,,Canada,Province or Territory of Alberta,,,49.1338889,,-113.24,Aetna,,https://natural-resources.canada.ca/earth-sciences/geography/download-geographical-names-data/9245,,,Province or Territory ,,
IAPWE_1,,Canada,Province or Territory of Alberta,,,49.1716666,,-113.1930556,Aetna Creek,,https://natural-resources.canada.ca/earth-sciences/geography/download-geographical-names-data/9245,,,Province or Territory ,,
IAPWF_1,,Canada,Province or Territory of Alberta,,,54.4344444,,-110.1697222,African Lake,,https://natural-resources.canada.ca/earth-sciences/geography/download-geographical-names-data/9245,,,Province or Territory ,,
IAPWG_1,,Canada,Province or Territory of Alberta,,,52.2997222,,-116.9863889,Afternoon Peak,,https://natural-resources.canada.ca/earth-sciences/geography/download-geographical-names-data/9245,,,Province or Territory ,,
IAPWH_1,,Canada,Province or Territory of Alberta,,,58.2208333,,-110.1647222,Agar Lake,,https://natural-resources.canada.ca/earth-sciences/geography/download-geographical-names-data/9245,,,Province or Territory ,,
IAPWI_1,,Canada,Province or Territory of Alberta,,,50.1483334,,-111.3038889,Agatha,,https://natural-resources.canada.ca/earth-sciences/geography/download-geographical-names-data/9245,,,Province or Territory ,,
IAPWJ_1,,Canada,Province or Territory of Alberta,,,55.4513889,,-116.6416667,Aggie,,https://natural-resources.canada.ca/earth-sciences/geography/download-geographical-names-data/9245,,,Province or Territory ,,
IAQFM_1,,Canada,Province or Territory of Alberta,,,55.8077778,,-112.5244444,Agnes Lake,,https://natural-resources.canada.ca/earth-sciences/geography/download-geographical-names-data/9245,,,Province or Territory ,,
IASYF_1,,Canada,Province or Territory of Alberta,,,56.9047222,,-113.6280556,Aguhway Lake,,https://natural-resources.canada.ca/earth-sciences/geography/download-geographical-names-data/9245,,,Province or Territory ,,
IASTP_1,,Canada,Province or Territory of Alberta,,,57.7605555,,-112.5772222,A-H Lake,,https://natural-resources.canada.ca/earth-sciences/geography/download-geographical-names-data/9245,,,Province or Territory ,,
IAQFQ_1,,Canada,Province or Territory of Alberta,,,51.805,,-116.6680556,Aiguille Peak,,https://natural-resources.canada.ca/earth-sciences/geography/download-geographical-names-data/9245,,,Province or Territory ,,
IAQFR_1,,Canada,Province or Territory of Alberta,,,51.2922222,,-114.0141667,Airdrie,,https://natural-resources.canada.ca/earth-sciences/geography/download-geographical-names-data/9245,,,Province or Territory ,,
IAQFS_1,,Canada,Province or Territory of Alberta,,,49.0238889,,-114.0347222,Akamina Lake,,https://natural-resources.canada.ca/earth-sciences/geography/download-geographical-names-data/9245,,,Province or Territory ,,
IAQFT_1,,Canada,Province or Territory of Alberta,,,49.0244445,,-114.0544444,Akamina Pass,,https://natural-resources.canada.ca/earth-sciences/geography/download-geographical-names-data/9245,,,Province or Territory ,,
IAQFU_1,,Canada,Province or Territory of Alberta,,,53.475,,-111.8416667,Akasu Hill,,https://natural-resources.canada.ca/earth-sciences/geography/download-geographical-names-data/9245,,,Province or Territory ,,
IAQFV_1,,Canada,Province or Territory of Alberta,,,53.5094444,,-111.8230556,Akasu Lake,,https://natural-resources.canada.ca/earth-sciences/geography/download-geographical-names-data/9245,,,Province or Territory ,,
IAQFW_1,,Canada,Province or Territory of Alberta,,,53.6022222,,-113.2355556,Akenside,,https://natural-resources.canada.ca/earth-sciences/geography/download-geographical-names-data/9245,,,Province or Territory ,,
IATUT_1,,Canada,Province or Territory of Alberta,,,53.629167,,-113.59167,Akinsdale,,https://natural-resources.canada.ca/earth-sciences/geography/download-geographical-names-data/9245,,,Province or Territory ,,
IAQFX_1,,Canada,Province or Territory of Alberta,,,54.9025,,-114.3605556,Akuinu River,,https://natural-resources.canada.ca/earth-sciences/geography/download-geographical-names-data/9245,,,Province or Territory ,,
IAQFY_1,,Canada,Province or Territory of Alberta,,,52.7713889,,-110.4347222,Alba Lake,,https://natural-resources.canada.ca/earth-sciences/geography/download-geographical-names-data/9245,,,Province or Territory ,,
IAQGE_1,,Canada,Province or Territory of Alberta,,,53.1669444,,-110.45,Albert Lake,,https://natural-resources.canada.ca/earth-sciences/geography/download-geographical-names-data/9245,,,Province or Territory ,,
IAQGG_1,,Canada,Province or Territory of Alberta,,,51.0383333,,-113.9988889,Albert Park,,https://natural-resources.canada.ca/earth-sciences/geography/download-geographical-names-data/9245,,,Province or Territory ,,
IAQFZ_1,,Canada,Province or Territory of Alberta,,,54.991667,,-114.376667,Alberta,,https://natural-resources.canada.ca/earth-sciences/geography/download-geographical-names-data/9245,,,Province or Territory ,,
IASMB_1,,Canada,Province or Territory of Alberta,,,53.566667,,-113.48333,Alberta Avenue,,https://natural-resources.canada.ca/earth-sciences/geography/download-geographical-names-data/9245,,,Province or Territory ,,
IAQGA_1,,Canada,Province or Territory of Alberta,,,53.6780555,,-114.3511111,Alberta Beach,,https://natural-resources.canada.ca/earth-sciences/geography/download-geographical-names-data/9245,,,Province or Territory ,,
IATST_1,,Canada,Province or Territory of Alberta,,,53.566667,,-113.59722,Alberta Park Industrial,,https://natural-resources.canada.ca/earth-sciences/geography/download-geographical-names-data/9245,,,Province or Territory ,,
IAQGD_1,,Canada,Province or Territory of Alberta,,,53.7994445,,-119.0525,Albertine Creek,,https://natural-resources.canada.ca/earth-sciences/geography/download-geographical-names-data/9245,,,Province or Territory ,,
IAQGJ_1,,Canada,Province or Territory of Alberta,,,55.2658333,,-119.4972222,Albright,,https://natural-resources.canada.ca/earth-sciences/geography/download-geographical-names-data/9245,,,Province or Territory ,,
IAQGK_1,,Canada,Province or Territory of Alberta,,,55.4869444,,-120.0011111,Albright Creek,,https://natural-resources.canada.ca/earth-sciences/geography/download-geographical-names-data/9245,,,Province or Territory ,,
IAQGL_1,,Canada,Province or Territory of Alberta,,,55.4894444,,-119.8216667,Albright Lake,,https://natural-resources.canada.ca/earth-sciences/geography/download-geographical-names-data/9245,,,Province or Territory ,,
IAQGM_1,,Canada,Province or Territory of Alberta,,,53.8930556,,-113.8380556,Alcomdale,,https://natural-resources.canada.ca/earth-sciences/geography/download-geographical-names-data/9245,,,Province or Territory ,,
IAQGO_1,,Canada,Province or Territory of Alberta,,,52.6133333,,-118.2311111,Alcove Mountain,,https://natural-resources.canada.ca/earth-sciences/geography/download-geographical-names-data/9245,,,Province or Territory ,,
IAQGN_1,,Canada,Province or Territory of Alberta,,,53.5119444,,-110.0666667,Alcurve,,https://natural-resources.canada.ca/earth-sciences/geography/download-geographical-names-data/9245,,,Province or Territory ,,
IAQGP_1,,Canada,Province or Territory of Alberta,,,52.9330556,,-114.9569444,Alder Flats,,https://natural-resources.canada.ca/earth-sciences/geography/download-geographical-names-data/9245,,,Province or Territory ,,
IATTI_1,,Canada,Province or Territory of Alberta,,,53.516667,,-113.50139,Aldergrove,,https://natural-resources.canada.ca/earth-sciences/geography/download-geographical-names-data/9245,,,Province or Territory ,,
IAQGQ_1,,Canada,Province or Territory of Alberta,,,50.2830555,,-111.3452778,Alderson,,https://natural-resources.canada.ca/earth-sciences/geography/download-geographical-names-data/9245,,,Province or Territory ,,
IABFL_1,,Canada,Province or Territory of Alberta,,,49.0447222,,-113.97,Alderson Creek,,https://natural-resources.canada.ca/earth-sciences/geography/download-geographical-names-data/9245,,,Province or Territory ,,
IAQGR_1,,Canada,Province or Territory of Alberta,,,49.0297222,,-113.9761111,Alderson Lake,,https://natural-resources.canada.ca/earth-sciences/geography/download-geographical-names-data/9245,,,Province or Territory ,,
IAQGT_1,,Canada,Province or Territory of Alberta,,,50.6761111,,-113.8788889,Aldersyde,,https://natural-resources.canada.ca/earth-sciences/geography/download-geographical-names-data/9245,,,Province or Territory ,,
IAQGZ_1,,Canada,Province or Territory of Alberta,,,56.115,,-118.3425,Alex Lake,,https://natural-resources.canada.ca/earth-sciences/geography/download-geographical-names-data/9245,,,Province or Territory ,,
IATLN_1,,Canada,Province or Territory of Alberta,,,53.8033333,,-113.9186111,Alexander,,https://natural-resources.canada.ca/earth-sciences/geography/download-geographical-names-data/9245,,,Province or Territory ,,
IAUBO_1,,Canada,Province or Territory of Alberta,,,53.8113889,,-113.9602778,Alexander 134,,https://natural-resources.canada.ca/earth-sciences/geography/download-geographical-names-data/9245,,,Province or Territory ,,
IZAAH_1,,Canada,Province or Territory of Alberta,,,54.28615,,-116.450092,Alexander 134a,,https://natural-resources.canada.ca/earth-sciences/geography/download-geographical-names-data/9245,,,Province or Territory ,,
IZAAI_1,,Canada,Province or Territory of Alberta,,,54.3420082,,-114.8120155,Alexander 134b,,https://natural-resources.canada.ca/earth-sciences/geography/download-geographical-names-data/9245,,,Province or Territory ,,
IAQMZ_1,,Canada,Province or Territory of Alberta,,,52.6975,,-111.0927778,Alexander Gate,,https://natural-resources.canada.ca/earth-sciences/geography/download-geographical-names-data/9245,,,Province or Territory ,,
IAQGU_1,,Canada,Province or Territory of Alberta,,,57.1472223,,-111.6141667,Alexander Island,,https://natural-resources.canada.ca/earth-sciences/geography/download-geographical-names-data/9245,,,Province or Territory ,,
IAQGV_1,,Canada,Province or Territory of Alberta,,,59.6236111,,-110.4802778,Alexander Lake,,https://natural-resources.canada.ca/earth-sciences/geography/download-geographical-names-data/9245,,,Province or Territory ,,
IAQGW_1,,Canada,Province or Territory of Alberta,,,51.9852778,,-117.1483333,Alexandra Glaciers,,https://natural-resources.canada.ca/earth-sciences/geography/download-geographical-names-data/9245,,,Province or Territory ,,
IABFM_1,,Canada,Province or Territory of Alberta,,,52.0677778,,-116.9297222,Alexandra River,,https://natural-resources.canada.ca/earth-sciences/geography/download-geographical-names-data/9245,,,Province or Territory ,,
IATYW_1,,Canada,Province or Territory of Alberta,,,53.7488889,,-114.4863889,Alexis,,https://natural-resources.canada.ca/earth-sciences/geography/download-geographical-names-data/9245,,,Province or Territory ,,
IAUBP_1,,Canada,Province or Territory of Alberta,,,53.7333334,,-114.4833333,Alexis 133,,https://natural-resources.canada.ca/earth-sciences/geography/download-geographical-names-data/9245,,,Province or Territory ,,
IAUFN_1,,Canada,Province or Territory of Alberta,,,52.8541667,,-116.9722222,Alexis Cardinal River 234,,https://natural-resources.canada.ca/earth-sciences/geography/download-geographical-names-data/9245,,,Province or Territory ,,
IAUFM_1,,Canada,Province or Territory of Alberta,,,52.9236111,,-116.5494444,Alexis Elk River 233,,https://natural-resources.canada.ca/earth-sciences/geography/download-geographical-names-data/9245,,,Province or Territory ,,
IAUBC_1,,Canada,Province or Territory of Alberta,,,54.225,,-115.8169,Alexis Whitecourt 232,,https://natural-resources.canada.ca/earth-sciences/geography/download-geographical-names-data/9245,,,Province or Territory ,,
IABFG_1,,Canada,Province or Territory of Alberta,,,52.4752778,,-115.7830556,Alexo,,https://natural-resources.canada.ca/earth-sciences/geography/download-geographical-names-data/9245,,,Province or Territory ,,
IABFH_1,,Canada,Province or Territory of Alberta,,,52.0847222,,-114.8805556,Alford Creek,,https://natural-resources.canada.ca/earth-sciences/geography/download-geographical-names-data/9245,,,Province or Territory ,,
IABFI_1,,Canada,Province or Territory of Alberta,,,52.066667,,-115.08333,Alford Lake,,https://natural-resources.canada.ca/earth-sciences/geography/download-geographical-names-data/9245,,,Province or Territory ,,
IABFJ_1,,Canada,Province or Territory of Alberta,,,51.4733333,,-115.9363889,Alfred Lake,,https://natural-resources.canada.ca/earth-sciences/geography/download-geographical-names-data/9245,,,Province or Territory ,,
IAECW_1,,Canada,Province or Territory of Alberta,,,56.3116667,,-112.2922222,Algar Lake,,https://natural-resources.canada.ca/earth-sciences/geography/download-geographical-names-data/9245,,,Province or Territory ,,
IAECX_1,,Canada,Province or Territory of Alberta,,,56.5486111,,-112.1941667,Algar River,,https://natural-resources.canada.ca/earth-sciences/geography/download-geographical-names-data/9245,,,Province or Territory ,,
IABFN_1,,Canada,Province or Territory of Alberta,,,52.3430556,,-114.6725,Alhambra,,https://natural-resources.canada.ca/earth-sciences/geography/download-geographical-names-data/9245,,,Province or Territory ,,
IABFO_1,,Canada,Province or Territory of Alberta,,,58.2980556,,-113.2086111,Alice Creek,,https://natural-resources.canada.ca/earth-sciences/geography/download-geographical-names-data/9245,,,Province or Territory ,,
IABFQ_1,,Canada,Province or Territory of Alberta,,,53.2372223,,-111.5591667,Alice Lake,,https://natural-resources.canada.ca/earth-sciences/geography/download-geographical-names-data/9245,,,Province or Territory ,,
IABFR_1,,Canada,Province or Territory of Alberta,,,52.3999999,,-113.1797221,Alix,,https://natural-resources.canada.ca/earth-sciences/geography/download-geographical-names-data/9245,,,Province or Territory ,,
IABFS_1,,Canada,Province or Territory of Alberta,,,52.3941667,,-113.1969444,Alix Lake,,https://natural-resources.canada.ca/earth-sciences/geography/download-geographical-names-data/9245,,,Province or Territory ,,
IABFT_1,,Canada,Province or Territory of Alberta,,,52.37,,-113.21,Alix South Junction,,https://natural-resources.canada.ca/earth-sciences/geography/download-geographical-names-data/9245,,,Province or Territory ,,
IABFU_1,,Canada,Province or Territory of Alberta,,,50.8638889,,-110.4966667,Alkali Creek,,https://natural-resources.canada.ca/earth-sciences/geography/download-geographical-names-data/9245,,,Province or Territory ,,
IABFV_1,,Canada,Province or Territory of Alberta,,,51.016667,,-112.18333,Alkali Lake,,https://natural-resources.canada.ca/earth-sciences/geography/download-geographical-names-data/9245,,,Province or Territory ,,
IABFY_1,,Canada,Province or Territory of Alberta,,,54.9386111,,-116.0619444,Allan Lake,,https://natural-resources.canada.ca/earth-sciences/geography/download-geographical-names-data/9245,,,Province or Territory ,,
IABGB_1,,Canada,Province or Territory of Alberta,,,54.9069445,,-114.775,Allan River,,https://natural-resources.canada.ca/earth-sciences/geography/download-geographical-names-data/9245,,,Province or Territory ,,
IABGC_1,,Canada,Province or Territory of Alberta,,,54.1855556,,-111.4530556,Allday Lake,,https://natural-resources.canada.ca/earth-sciences/geography/download-geographical-names-data/9245,,,Province or Territory ,,
IABGD_1,,Canada,Province or Territory of Alberta,,,57.0366666,,-118.6041667,Alleman Creek,,https://natural-resources.canada.ca/earth-sciences/geography/download-geographical-names-data/9245,,,Province or Territory ,,
IAQMM_1,,Canada,Province or Territory of Alberta,,,50.9011111,,-114.6863889,Allen Bill Pond,,https://natural-resources.canada.ca/earth-sciences/geography/download-geographical-names-data/9245,,,Province or Territory ,,
IABGH_1,,Canada,Province or Territory of Alberta,,,53.8966666,,-119.0652778,Allen Creek,,https://natural-resources.canada.ca/earth-sciences/geography/download-geographical-names-data/9245,,,Province or Territory ,,
IABGE_1,,Canada,Province or Territory of Alberta,,,50.9205556,,-115.5583333,Allenby Creek,,https://natural-resources.canada.ca/earth-sciences/geography/download-geographical-names-data/9245,,,Province or Territory ,,
IABGG_1,,Canada,Province or Territory of Alberta,,,50.9647222,,-115.5694444,Allenby Pass,,https://natural-resources.canada.ca/earth-sciences/geography/download-geographical-names-data/9245,,,Province or Territory ,,
IAECZ_1,,Canada,Province or Territory of Alberta,,,53.508333,,-113.50139,Allendale,,https://natural-resources.canada.ca/earth-sciences/geography/download-geographical-names-data/9245,,,Province or Territory ,,
IABGK_1,,Canada,Province or Territory of Alberta,,,52.4344445,,-111.7852778,Alliance,,https://natural-resources.canada.ca/earth-sciences/geography/download-geographical-names-data/9245,,,Province or Territory ,,
IABGL_1,,Canada,Province or Territory of Alberta,,,51.7027778,,-113.5952778,Allingham,,https://natural-resources.canada.ca/earth-sciences/geography/download-geographical-names-data/9245,,,Province or Territory ,,
IAUEV_1,,Canada,Province or Territory of Alberta,,,58.7744445,,-111.0366667,Allison Bay 219,,https://natural-resources.canada.ca/earth-sciences/geography/download-geographical-names-data/9245,,,Province or Territory ,,
IABGM_1,,Canada,Province or Territory of Alberta,,,49.625,,-114.5897222,Allison Creek,,https://natural-resources.canada.ca/earth-sciences/geography/download-geographical-names-data/9245,,,Province or Territory ,,
IABGN_1,,Canada,Province or Territory of Alberta,,,49.7433333,,-114.6463889,Allison Peak,,https://natural-resources.canada.ca/earth-sciences/geography/download-geographical-names-data/9245,,,Province or Territory ,,
IABGO_1,,Canada,Province or Territory of Alberta,,,50.7438889,,-114.6894444,Allsmoke Mountain,,https://natural-resources.canada.ca/earth-sciences/geography/download-geographical-names-data/9245,,,Province or Territory ,,
IABGP_1,,Canada,Province or Territory of Alberta,,,52.2902778,,-116.3747222,Allstones Creek,,https://natural-resources.canada.ca/earth-sciences/geography/download-geographical-names-data/9245,,,Province or Territory ,,
IARAP_1,,Canada,Province or Territory of Alberta,,,52.3025,,-116.4186111,Allstones Lake,,https://natural-resources.canada.ca/earth-sciences/geography/download-geographical-names-data/9245,,,Province or Territory ,,
IABGQ_1,,Canada,Province or Territory of Alberta,,,53.7536111,,-110.4416667,Alma Creek,,https://natural-resources.canada.ca/earth-sciences/geography/download-geographical-names-data/9245,,,Province or Territory ,,
IABGR_1,,Canada,Province or Territory of Alberta,,,53.7808334,,-110.3966667,Alma Lake,,https://natural-resources.canada.ca/earth-sciences/geography/download-geographical-names-data/9245,,,Province or Territory ,,
IABGS_1,,Canada,Province or Territory of Alberta,,,51.6541667,,-111.7313889,Alness,,https://natural-resources.canada.ca/earth-sciences/geography/download-geographical-names-data/9245,,,Province or Territory ,,
IABGU_1,,Canada,Province or Territory of Alberta,,,52.4875,,-118.0069444,Alnus Peak,,https://natural-resources.canada.ca/earth-sciences/geography/download-geographical-names-data/9245,,,Province or Territory ,,
IABGV_1,,Canada,Province or Territory of Alberta,,,54.4252777,,-112.9252778,Alpen,,https://natural-resources.canada.ca/earth-sciences/geography/download-geographical-names-data/9245,,,Province or Territory ,,
IABGW_1,,Canada,Province or Territory of Alberta,,,54.4263889,,-112.9555556,Alpen Siding,,https://natural-resources.canada.ca/earth-sciences/geography/download-geographical-names-data/9245,,,Province or Territory ,,
IABGX_1,,Canada,Province or Territory of Alberta,,,53.7727778,,-115.2538889,Alpha Lake,,https://natural-resources.canada.ca/earth-sciences/geography/download-geographical-names-data/9245,,,Province or Territory ,,
IABGZ_1,,Canada,Province or Territory of Alberta,,,51.8283333,,-116.8936111,Alpland Creek,,https://natural-resources.canada.ca/earth-sciences/geography/download-geographical-names-data/9245,,,Province or Territory ,,
IABHA_1,,Canada,Province or Territory of Alberta,,,53.1916667,,-114.4638889,Alsike,,https://natural-resources.canada.ca/earth-sciences/geography/download-geographical-names-data/9245,,,Province or Territory ,,
IABHB_1,,Canada,Province or Territory of Alberta,,,51.016667,,-114.1,Altadore,,https://natural-resources.canada.ca/earth-sciences/geography/download-geographical-names-data/9245,,,Province or Territory ,,
IABHC_1,,Canada,Province or Territory of Alberta,,,51.9186111,,-110.1622222,Altario,,https://natural-resources.canada.ca/earth-sciences/geography/download-geographical-names-data/9245,,,Province or Territory ,,
IABHE_1,,Canada,Province or Territory of Alberta,,,51.2575,,-115.9352778,Altrude Creek,,https://natural-resources.canada.ca/earth-sciences/geography/download-geographical-names-data/9245,,,Province or Territory ,,
IABHF_1,,Canada,Province or Territory of Alberta,,,51.2305556,,-116.0475,Altrude Lakes,,https://natural-resources.canada.ca/earth-sciences/geography/download-geographical-names-data/9245,,,Province or Territory ,,
IABHG_1,,Canada,Province or Territory of Alberta,,,52.6783333,,-110.195,Alvena Lake,,https://natural-resources.canada.ca/earth-sciences/geography/download-geographical-names-data/9245,,,Province or Territory ,,
IABHH_1,,Canada,Province or Territory of Alberta,,,55.3711111,,-112.9066667,Amadou Lake,,https://natural-resources.canada.ca/earth-sciences/geography/download-geographical-names-data/9245,,,Province or Territory ,,
IABHJ_1,,Canada,Province or Territory of Alberta,,,52.8116667,,-117.9052778,Amber Mountain,,https://natural-resources.canada.ca/earth-sciences/geography/download-geographical-names-data/9245,,,Province or Territory ,,
IAEDA_1,,Canada,Province or Territory of Alberta,,,58.85,,-118.915,Amber River,,https://natural-resources.canada.ca/earth-sciences/geography/download-geographical-names-data/9245,,,Province or Territory ,,
IAUCC_1,,Canada,Province or Territory of Alberta,,,58.8922222,,-118.9461111,Amber River 211,,https://natural-resources.canada.ca/earth-sciences/geography/download-geographical-names-data/9245,,,Province or Territory ,,
IABHK_1,,Canada,Province or Territory of Alberta,,,54.7327778,,-112.9294444,Amber Valley,,https://natural-resources.canada.ca/earth-sciences/geography/download-geographical-names-data/9245,,,Province or Territory ,,
IABHL_1,,Canada,Province or Territory of Alberta,,,53.9302777,,-119.2547222,Ambler Mountain,,https://natural-resources.canada.ca/earth-sciences/geography/download-geographical-names-data/9245,,,Province or Territory ,,
IABHM_1,,Canada,Province or Territory of Alberta,,,53.8913889,,-113.0522222,Amelia,,https://natural-resources.canada.ca/earth-sciences/geography/download-geographical-names-data/9245,,,Province or Territory ,,
IABHO_1,,Canada,Province or Territory of Alberta,,,55.0811111,,-112.4972222,Amesbury,,https://natural-resources.canada.ca/earth-sciences/geography/download-geographical-names-data/9245,,,Province or Territory ,,
IABHP_1,,Canada,Province or Territory of Alberta,,,52.7,,-118.2769444,Amethyst Lakes,,https://natural-resources.canada.ca/earth-sciences/geography/download-geographical-names-data/9245,,,Province or Territory ,,
IABHQ_1,,Canada,Province or Territory of Alberta,,,52.5655555,,-111.0572222,Amisk,,https://natural-resources.canada.ca/earth-sciences/geography/download-geographical-names-data/9245,,,Province or Territory ,,
IABHR_1,,Canada,Province or Territory of Alberta,,,53.365,,-112.5380556,Amisk Creek,,https://natural-resources.canada.ca/earth-sciences/geography/download-geographical-names-data/9245,,,Province or Territory ,,
IAIYZ_1,,Canada,Province or Territory of Alberta,,,54.5936111,,-112.6330556,Amisk Lake,,https://natural-resources.canada.ca/earth-sciences/geography/download-geographical-names-data/9245,,,Province or Territory ,,
IABHS_1,,Canada,Province or Territory of Alberta,,,54.4644444,,-111.7711111,Amisk River,,https://natural-resources.canada.ca/earth-sciences/geography/download-geographical-names-data/9245,,,Province or Territory ,,
IABHT_1,,Canada,Province or Territory of Alberta,,,53.0372223,,-117.8252778,Ammonite Creek,,https://natural-resources.canada.ca/earth-sciences/geography/download-geographical-names-data/9245,,,Province or Territory ,,
IAEDB_1,,Canada,Province or Territory of Alberta,,,54.4211111,,-118.3861111,Amundson,,https://natural-resources.canada.ca/earth-sciences/geography/download-geographical-names-data/9245,,,Province or Territory ,,
IABSU_1,,Canada,Province or Territory of Alberta,,,54.3566667,,-113.6269444,Analta,,https://natural-resources.canada.ca/earth-sciences/geography/download-geographical-names-data/9245,,,Province or Territory ,,
IABSV_1,,Canada,Province or Territory of Alberta,,,50.7233333,,-113.0319444,Anastasia,,https://natural-resources.canada.ca/earth-sciences/geography/download-geographical-names-data/9245,,,Province or Territory ,,
IABSY_1,,Canada,Province or Territory of Alberta,,,52.4502778,,-115.5869444,Ancona,,https://natural-resources.canada.ca/earth-sciences/geography/download-geographical-names-data/9245,,,Province or Territory ,,
IABTA_1,,Canada,Province or Territory of Alberta,,,52.7683333,,-114.3102778,Anderson Creek,,https://natural-resources.canada.ca/earth-sciences/geography/download-geographical-names-data/9245,,,Province or Territory ,,
IABTB_1,,Canada,Province or Territory of Alberta,,,55.3386112,,-119.2441667,Anderson Lake,,https://natural-resources.canada.ca/earth-sciences/geography/download-geographical-names-data/9245,,,Province or Territory ,,
IABTD_1,,Canada,Province or Territory of Alberta,,,49.1344444,,-114.0786111,Anderson Peak,,https://natural-resources.canada.ca/earth-sciences/geography/download-geographical-names-data/9245,,,Province or Territory ,,
IABTE_1,,Canada,Province or Territory of Alberta,,,53.8783333,,-112.3352778,Andrew,,https://natural-resources.canada.ca/earth-sciences/geography/download-geographical-names-data/9245,,,Province or Territory ,,
IABTF_1,,Canada,Province or Territory of Alberta,,,59.8933333,,-110.1147222,Andrew Lake,,https://natural-resources.canada.ca/earth-sciences/geography/download-geographical-names-data/9245,,,Province or Territory ,,
IABTH_1,,Canada,Province or Territory of Alberta,,,49.5655556,,-114.5886111,Andy Good Peak,,https://natural-resources.canada.ca/earth-sciences/geography/download-geographical-names-data/9245,,,Province or Territory ,,
IABTI_1,,Canada,Province or Territory of Alberta,,,52.6766666,,-118.0622222,Angel Glacier,,https://natural-resources.canada.ca/earth-sciences/geography/download-geographical-names-data/9245,,,Province or Territory ,,
IABTK_1,,Canada,Province or Territory of Alberta,,,53.74,,-110.9680556,Angle Lake,,https://natural-resources.canada.ca/earth-sciences/geography/download-geographical-names-data/9245,,,Province or Territory ,,
IABTL_1,,Canada,Province or Territory of Alberta,,,52.61,,-118.2119444,Angle Peak,,https://natural-resources.canada.ca/earth-sciences/geography/download-geographical-names-data/9245,,,Province or Territory ,,
IABTM_1,,Canada,Province or Territory of Alberta,,,54.1991667,,-110.3280556,Angling Lake,,https://natural-resources.canada.ca/earth-sciences/geography/download-geographical-names-data/9245,,,Province or Territory ,,
IABTQ_1,,Canada,Province or Territory of Alberta,,,52.7302778,,-112.33,Ankerton,,https://natural-resources.canada.ca/earth-sciences/geography/download-geographical-names-data/9245,,,Province or Territory ,,
IABTS_1,,Canada,Province or Territory of Alberta,,,54.7405556,,-115.2316667,Anna Lake,,https://natural-resources.canada.ca/earth-sciences/geography/download-geographical-names-data/9245,,,Province or Territory ,,
IABTR_1,,Canada,Province or Territory of Alberta,,,53.5319445,,-116.7208333,Annabel Lake,,https://natural-resources.canada.ca/earth-sciences/geography/download-geographical-names-data/9245,,,Province or Territory ,,
IAIZW_1,,Canada,Province or Territory of Alberta,,,52.9016667,,-118.0475,Annette Lake,,https://natural-resources.canada.ca/earth-sciences/geography/download-geographical-names-data/9245,,,Province or Territory ,,
IABTX_1,,Canada,Province or Territory of Alberta,,,53.5572222,,-116.5255556,Ansell,,https://natural-resources.canada.ca/earth-sciences/geography/download-geographical-names-data/9245,,,Province or Territory ,,
IABTY_1,,Canada,Province or Territory of Alberta,,,54.5055556,,-113.1019444,Ansell Lake,,https://natural-resources.canada.ca/earth-sciences/geography/download-geographical-names-data/9245,,,Province or Territory ,,
IABUA_1,,Canada,Province or Territory of Alberta,,,53.89,,-115.3888889,Anselmo,,https://natural-resources.canada.ca/earth-sciences/geography/download-geographical-names-data/9245,,,Province or Territory ,,
IABUC_1,,Canada,Province or Territory of Alberta,,,54.7688889,,-117.6869444,Ante Creek,,https://natural-resources.canada.ca/earth-sciences/geography/download-geographical-names-data/9245,,,Province or Territory ,,
IAALC_1,,Canada,Province or Territory of Alberta,,,49.7702778,,-114.2088889,Antelope Butte,,https://natural-resources.canada.ca/earth-sciences/geography/download-geographical-names-data/9245,,,Province or Territory ,,
IARAQ_1,,Canada,Province or Territory of Alberta,,,51.7497222,,-111.9283333,Antelope Hills,,https://natural-resources.canada.ca/earth-sciences/geography/download-geographical-names-data/9245,,,Province or Territory ,,
IABUD_1,,Canada,Province or Territory of Alberta,,,51.6694444,,-111.2491667,Antelope Lake,,https://natural-resources.canada.ca/earth-sciences/geography/download-geographical-names-data/9245,,,Province or Territory ,,
IABUE_1,,Canada,Province or Territory of Alberta,,,51.2863889,,-112.2397222,Antelope Lakes,,https://natural-resources.canada.ca/earth-sciences/geography/download-geographical-names-data/9245,,,Province or Territory ,,
IABUF_1,,Canada,Province or Territory of Alberta,,,53.6019444,,-118.9438889,Anthony Creek,,https://natural-resources.canada.ca/earth-sciences/geography/download-geographical-names-data/9245,,,Province or Territory ,,
IABUG_1,,Canada,Province or Territory of Alberta,,,51.4627778,,-116.0275,Anthozoan Mountain,,https://natural-resources.canada.ca/earth-sciences/geography/download-geographical-names-data/9245,,,Province or Territory ,,
IABUH_1,,Canada,Province or Territory of Alberta,,,51.1925,,-115.4938889,Anthracite,,https://natural-resources.canada.ca/earth-sciences/geography/download-geographical-names-data/9245,,,Province or Territory ,,
IABUI_1,,Canada,Province or Territory of Alberta,,,53.2122222,,-117.3280556,Antler Creek,,https://natural-resources.canada.ca/earth-sciences/geography/download-geographical-names-data/9245,,,Province or Territory ,,
IABUJ_1,,Canada,Province or Territory of Alberta,,,52.0630556,,-113.8933333,Antler Hill,,https://natural-resources.canada.ca/earth-sciences/geography/download-geographical-names-data/9245,,,Province or Territory ,,
IASVM_1,,Canada,Province or Territory of Alberta,,,57.5488889,,-113.3777778,Antler Lake,,https://natural-resources.canada.ca/earth-sciences/geography/download-geographical-names-data/9245,,,Province or Territory ,,
IASZX_1,,Canada,Province or Territory of Alberta,,,52.7505556,,-117.8172222,Antler Lakes,,https://natural-resources.canada.ca/earth-sciences/geography/download-geographical-names-data/9245,,,Province or Territory ,,
IABUL_1,,Canada,Province or Territory of Alberta,,,52.7588889,,-117.8458333,Antler Mountain,,https://natural-resources.canada.ca/earth-sciences/geography/download-geographical-names-data/9245,,,Province or Territory ,,
IABUM_1,,Canada,Province or Territory of Alberta,,,54.7672223,,-112.0877778,Antoine Lake,,https://natural-resources.canada.ca/earth-sciences/geography/download-geographical-names-data/9245,,,Province or Territory ,,
IABUO_1,,Canada,Province or Territory of Alberta,,,54.1530556,,-113.3888889,Anton Lake,,https://natural-resources.canada.ca/earth-sciences/geography/download-geographical-names-data/9245,,,Province or Territory ,,
IABUN_1,,Canada,Province or Territory of Alberta,,,49.8211111,,-111.7941667,Antonio,,https://natural-resources.canada.ca/earth-sciences/geography/download-geographical-names-data/9245,,,Province or Territory ,,
IABUP_1,,Canada,Province or Territory of Alberta,,,53.0766667,,-114.5136111,Antross,,https://natural-resources.canada.ca/earth-sciences/geography/download-geographical-names-data/9245,,,Province or Territory ,,
IBAJY_1,,Canada,Province or Territory of Alberta,,,51.1361111,,-115.3377778,Anû Kathâ Îpa (Bald Eagle Peak) ,,https://natural-resources.canada.ca/earth-sciences/geography/download-geographical-names-data/9245,,,Province or Territory ,,
IABUQ_1,,Canada,Province or Territory of Alberta,,,56.4486111,,-111.0352778,Anzac,,https://natural-resources.canada.ca/earth-sciences/geography/download-geographical-names-data/9245,,,Province or Territory ,,
IABUR_1,,Canada,Province or Territory of Alberta,,,53.6436111,,-117.2616667,Apetowun Creek,,https://natural-resources.canada.ca/earth-sciences/geography/download-geographical-names-data/9245,,,Province or Territory ,,
IABUS_1,,Canada,Province or Territory of Alberta,,,52.2227778,,-117.8133333,Apex Mountain,,https://natural-resources.canada.ca/earth-sciences/geography/download-geographical-names-data/9245,,,Province or Territory ,,
IABUT_1,,Canada,Province or Territory of Alberta,,,51.3675,,-115.4583333,Apparition Mountain,,https://natural-resources.canada.ca/earth-sciences/geography/download-geographical-names-data/9245,,,Province or Territory ,,
IATLV_1,,Canada,Province or Territory of Alberta,,,51.043056,,-113.925,Applewood Park,,https://natural-resources.canada.ca/earth-sciences/geography/download-geographical-names-data/9245,,,Province or Territory ,,
IARAR_1,,Canada,Province or Territory of Alberta,,,51.4722222,,-113.0286111,Appleyard Coulee,,https://natural-resources.canada.ca/earth-sciences/geography/download-geographical-names-data/9245,,,Province or Territory ,,
IABUU_1,,Canada,Province or Territory of Alberta,,,52.7366667,,-118.1094444,Aquila Mountain,,https://natural-resources.canada.ca/earth-sciences/geography/download-geographical-names-data/9245,,,Province or Territory ,,
IATLW_1,,Canada,Province or Territory of Alberta,,,51.134722,,-114.20278,Arbour Lake,,https://natural-resources.canada.ca/earth-sciences/geography/download-geographical-names-data/9245,,,Province or Territory ,,
IABUV_1,,Canada,Province or Territory of Alberta,,,55.4005556,,-116.1280556,Arcadia,,https://natural-resources.canada.ca/earth-sciences/geography/download-geographical-names-data/9245,,,Province or Territory ,,
IABUW_1,,Canada,Province or Territory of Alberta,,,55.4305556,,-116.0777778,Arcadia Creek,,https://natural-resources.canada.ca/earth-sciences/geography/download-geographical-names-data/9245,,,Province or Territory ,,
IABUX_1,,Canada,Province or Territory of Alberta,,,53.1061111,,-110.7875,Arcand Lake,,https://natural-resources.canada.ca/earth-sciences/geography/download-geographical-names-data/9245,,,Province or Territory ,,
IACIH_1,,Canada,Province or Territory of Alberta,,,59.8705556,,-110.63,Arch Lake,,https://natural-resources.canada.ca/earth-sciences/geography/download-geographical-names-data/9245,,,Province or Territory ,,
IABUY_1,,Canada,Province or Territory of Alberta,,,58.0791667,,-110.6208333,Archer Creek,,https://natural-resources.canada.ca/earth-sciences/geography/download-geographical-names-data/9245,,,Province or Territory ,,
IABUZ_1,,Canada,Province or Territory of Alberta,,,53.6736111,,-112.8358333,Archer Island,,https://natural-resources.canada.ca/earth-sciences/geography/download-geographical-names-data/9245,,,Province or Territory ,,
IABVA_1,,Canada,Province or Territory of Alberta,,,58.1130556,,-110.3405556,Archer Lake,,https://natural-resources.canada.ca/earth-sciences/geography/download-geographical-names-data/9245,,,Province or Territory ,,
IABVB_1,,Canada,Province or Territory of Alberta,,,52.7444445,,-111.1019444,Archie Hill,,https://natural-resources.canada.ca/earth-sciences/geography/download-geographical-names-data/9245,,,Province or Territory ,,
IABVD_1,,Canada,Province or Territory of Alberta,,,54.6877777,,-115.0775,Archie Lake,,https://natural-resources.canada.ca/earth-sciences/geography/download-geographical-names-data/9245,,,Province or Territory ,,
IACIJ_1,,Canada,Province or Territory of Alberta,,,51.9933333,,-116.8147222,Arctomys Creek,,https://natural-resources.canada.ca/earth-sciences/geography/download-geographical-names-data/9245,,,Province or Territory ,,
IACIK_1,,Canada,Province or Territory of Alberta,,,51.9333333,,-116.9833333,Arctomys Peak,,https://natural-resources.canada.ca/earth-sciences/geography/download-geographical-names-data/9245,,,Province or Territory ,,
IACIL_1,,Canada,Province or Territory of Alberta,,,53.4486111,,-118.66,Arcturus Peak,,https://natural-resources.canada.ca/earth-sciences/geography/download-geographical-names-data/9245,,,Province or Territory ,,
IATLA_1,,Canada,Province or Territory of Alberta,,,52.0413889,,-116.3588889,Ardennes Peak,,https://natural-resources.canada.ca/earth-sciences/geography/download-geographical-names-data/9245,,,Province or Territory ,,
IACIM_1,,Canada,Province or Territory of Alberta,,,51.1444444,,-113.4236111,Ardenode,,https://natural-resources.canada.ca/earth-sciences/geography/download-geographical-names-data/9245,,,Province or Territory ,,
IADNH_1,,Canada,Province or Territory of Alberta,,,58.8963889,,-111.4658333,Ardens Slough,,https://natural-resources.canada.ca/earth-sciences/geography/download-geographical-names-data/9245,,,Province or Territory ,,
IACIN_1,,Canada,Province or Territory of Alberta,,,49.545,,-113.4586111,Ardenville,,https://natural-resources.canada.ca/earth-sciences/geography/download-geographical-names-data/9245,,,Province or Territory ,,
IACIO_1,,Canada,Province or Territory of Alberta,,,52.2613889,,-113.2275,Ardley,,https://natural-resources.canada.ca/earth-sciences/geography/download-geographical-names-data/9245,,,Province or Territory ,,
IACIP_1,,Canada,Province or Territory of Alberta,,,54.3319444,,-110.4827778,Ardmore,,https://natural-resources.canada.ca/earth-sciences/geography/download-geographical-names-data/9245,,,Province or Territory ,,
IACIQ_1,,Canada,Province or Territory of Alberta,,,53.5522222,,-113.1438889,Ardrossan,,https://natural-resources.canada.ca/earth-sciences/geography/download-geographical-names-data/9245,,,Province or Territory ,,
IACIR_1,,Canada,Province or Territory of Alberta,,,52.4747222,,-116.9458333,Arête Mountain,,https://natural-resources.canada.ca/earth-sciences/geography/download-geographical-names-data/9245,,,Province or Territory ,,
IACIS_1,,Canada,Province or Territory of Alberta,,,53.0536111,,-114.0163889,Argentia Beach,,https://natural-resources.canada.ca/earth-sciences/geography/download-geographical-names-data/9245,,,Province or Territory ,,
IATQU_1,,Canada,Province or Territory of Alberta,,,53.502778,,-113.45972,Argyll,,https://natural-resources.canada.ca/earth-sciences/geography/download-geographical-names-data/9245,,,Province or Territory ,,
IACIV_1,,Canada,Province or Territory of Alberta,,,51.7872222,,-116.6447222,Aries Peak,,https://natural-resources.canada.ca/earth-sciences/geography/download-geographical-names-data/9245,,,Province or Territory ,,
IACJA_1,,Canada,Province or Territory of Alberta,,,52.7463889,,-110.5994444,Arm Lake,,https://natural-resources.canada.ca/earth-sciences/geography/download-geographical-names-data/9245,,,Province or Territory ,,
IACIW_1,,Canada,Province or Territory of Alberta,,,50.4138889,,-112.7536111,Armada,,https://natural-resources.canada.ca/earth-sciences/geography/download-geographical-names-data/9245,,,Province or Territory ,,
IACIY_1,,Canada,Province or Territory of Alberta,,,53.1225,,-112.9488889,Armena,,https://natural-resources.canada.ca/earth-sciences/geography/download-geographical-names-data/9245,,,Province or Territory ,,
IATBL_1,,Canada,Province or Territory of Alberta,,,51.2833333,,-110.4116667,Armitage's Lake,,https://natural-resources.canada.ca/earth-sciences/geography/download-geographical-names-data/9245,,,Province or Territory ,,
IAQNA_1,,Canada,Province or Territory of Alberta,,,52.825,,-111.0925,Armstrong Hill,,https://natural-resources.canada.ca/earth-sciences/geography/download-geographical-names-data/9245,,,Province or Territory ,,
IACJB_1,,Canada,Province or Territory of Alberta,,,53.566667,,-113.61667,Armstrong Industrial,,https://natural-resources.canada.ca/earth-sciences/geography/download-geographical-names-data/9245,,,Province or Territory ,,
IADNI_1,,Canada,Province or Territory of Alberta,,,54.3894444,,-113.6438889,Armstrong Lake,,https://natural-resources.canada.ca/earth-sciences/geography/download-geographical-names-data/9245,,,Province or Territory ,,
IAQNB_1,,Canada,Province or Territory of Alberta,,,52.8236111,,-111.0583333,Armstrong Spring,,https://natural-resources.canada.ca/earth-sciences/geography/download-geographical-names-data/9245,,,Province or Territory ,,
IACJD_1,,Canada,Province or Territory of Alberta,,,53.705,,-114.7361111,Arnault Lake,,https://natural-resources.canada.ca/earth-sciences/geography/download-geographical-names-data/9245,,,Province or Territory ,,
IACJE_1,,Canada,Province or Territory of Alberta,,,51.1866667,,-110.075,Arneson,,https://natural-resources.canada.ca/earth-sciences/geography/download-geographical-names-data/9245,,,Province or Territory ,,
IADNJ_1,,Canada,Province or Territory of Alberta,,,51.2213889,,-115.9969444,Arnica Lake,,https://natural-resources.canada.ca/earth-sciences/geography/download-geographical-names-data/9245,,,Province or Territory ,,
IACJF_1,,Canada,Province or Territory of Alberta,,,52.7805556,,-118.2583333,Arris Mountain,,https://natural-resources.canada.ca/earth-sciences/geography/download-geographical-names-data/9245,,,Province or Territory ,,
IACJG_1,,Canada,Province or Territory of Alberta,,,59.6855556,,-113.6294444,Arrowhead Lake,,https://natural-resources.canada.ca/earth-sciences/geography/download-geographical-names-data/9245,,,Province or Territory ,,
IADNK_1,,Canada,Province or Territory of Alberta,,,49.9355556,,-112.5091667,Arrowsmith Coulee,,https://natural-resources.canada.ca/earth-sciences/geography/download-geographical-names-data/9245,,,Province or Territory ,,
IACJI_1,,Canada,Province or Territory of Alberta,,,50.7394444,,-113.1483332,Arrowwood,,https://natural-resources.canada.ca/earth-sciences/geography/download-geographical-names-data/9245,,,Province or Territory ,,
IACJK_1,,Canada,Province or Territory of Alberta,,,53.7647222,,-114.6488889,Arthur Lake,,https://natural-resources.canada.ca/earth-sciences/geography/download-geographical-names-data/9245,,,Province or Territory ,,
IACJN_1,,Canada,Province or Territory of Alberta,,,52.7558333,,-111.0933333,Arty Hill,,https://natural-resources.canada.ca/earth-sciences/geography/download-geographical-names-data/9245,,,Province or Territory ,,
IACJO_1,,Canada,Province or Territory of Alberta,,,53.9916666,,-114.0025,Arvilla,,https://natural-resources.canada.ca/earth-sciences/geography/download-geographical-names-data/9245,,,Province or Territory ,,
IACJR_1,,Canada,Province or Territory of Alberta,,,52.7511111,,-116.5352778,Ashburner Creek,,https://natural-resources.canada.ca/earth-sciences/geography/download-geographical-names-data/9245,,,Province or Territory ,,
IACJS_1,,Canada,Province or Territory of Alberta,,,53.2044444,,-117.8433333,Ashlar Creek,,https://natural-resources.canada.ca/earth-sciences/geography/download-geographical-names-data/9245,,,Province or Territory ,,
IACJT_1,,Canada,Province or Territory of Alberta,,,53.1727777,,-117.805,Ashlar Ridge,,https://natural-resources.canada.ca/earth-sciences/geography/download-geographical-names-data/9245,,,Province or Territory ,,
IACJU_1,,Canada,Province or Territory of Alberta,,,54.1291666,,-111.5680556,Ashmont,,https://natural-resources.canada.ca/earth-sciences/geography/download-geographical-names-data/9245,,,Province or Territory ,,
IACJV_1,,Canada,Province or Territory of Alberta,,,59.8425,,-110.4069444,Ashton Lake,,https://natural-resources.canada.ca/earth-sciences/geography/download-geographical-names-data/9245,,,Province or Territory ,,
IACJP_1,,Canada,Province or Territory of Alberta,,,52.4613889,,-113.9386111,Aspen Beach,,https://natural-resources.canada.ca/earth-sciences/geography/download-geographical-names-data/9245,,,Province or Territory ,,
IACJX_1,,Canada,Province or Territory of Alberta,,,52.4622222,,-113.9766667,Aspen Beach Provincial Park,,https://natural-resources.canada.ca/earth-sciences/geography/download-geographical-names-data/9245,,,Province or Territory ,,
IATPB_1,,Canada,Province or Territory of Alberta,,,53.475,,-113.54444,Aspen Gardens,,https://natural-resources.canada.ca/earth-sciences/geography/download-geographical-names-data/9245,,,Province or Territory ,,
IACJQ_1,,Canada,Province or Territory of Alberta,,,57.5383333,,-111.6311111,Asphalt Creek,,https://natural-resources.canada.ca/earth-sciences/geography/download-geographical-names-data/9245,,,Province or Territory ,,
IADNL_1,,Canada,Province or Territory of Alberta,,,54.9258333,,-117.2186111,Asplund Creek,,https://natural-resources.canada.ca/earth-sciences/geography/download-geographical-names-data/9245,,,Province or Territory ,,
IACKA_1,,Canada,Province or Territory of Alberta,,,55.3744445,,-115.1911111,Assineau,,https://natural-resources.canada.ca/earth-sciences/geography/download-geographical-names-data/9245,,,Province or Territory ,,
IACKB_1,,Canada,Province or Territory of Alberta,,,55.39,,-115.1961111,Assineau River,,https://natural-resources.canada.ca/earth-sciences/geography/download-geographical-names-data/9245,,,Province or Territory ,,
IAUDH_1,,Canada,Province or Territory of Alberta,,,55.3872222,,-115.1891667,Assineau River 150F,,https://natural-resources.canada.ca/earth-sciences/geography/download-geographical-names-data/9245,,,Province or Territory ,,
IACKD_1,,Canada,Province or Territory of Alberta,,,50.9263889,,-115.6088889,Assiniboine Pass,,https://natural-resources.canada.ca/earth-sciences/geography/download-geographical-names-data/9245,,,Province or Territory ,,
IACKE_1,,Canada,Province or Territory of Alberta,,,51.1805556,,-115.1261111,Association Peak,,https://natural-resources.canada.ca/earth-sciences/geography/download-geographical-names-data/9245,,,Province or Territory ,,
IAAQB_1,,Canada,Province or Territory of Alberta,,,58.6994444,,-118.6872222,Assumption,,https://natural-resources.canada.ca/earth-sciences/geography/download-geographical-names-data/9245,,,Province or Territory ,,
IACKF_1,,Canada,Province or Territory of Alberta,,,50.5863889,,-115.2016667,Aster Creek,,https://natural-resources.canada.ca/earth-sciences/geography/download-geographical-names-data/9245,,,Province or Territory ,,
IACKG_1,,Canada,Province or Territory of Alberta,,,50.5777777,,-115.2108333,Aster Lake,,https://natural-resources.canada.ca/earth-sciences/geography/download-geographical-names-data/9245,,,Province or Territory ,,
IACKI_1,,Canada,Province or Territory of Alberta,,,52.7075,,-118.1425,Astoria Pass,,https://natural-resources.canada.ca/earth-sciences/geography/download-geographical-names-data/9245,,,Province or Territory ,,
IACKJ_1,,Canada,Province or Territory of Alberta,,,52.7986111,,-118.02,Astoria River,,https://natural-resources.canada.ca/earth-sciences/geography/download-geographical-names-data/9245,,,Province or Territory ,,
IACKK_1,,Canada,Province or Territory of Alberta,,,53.8530555,,-112.9413889,Astotin Creek,,https://natural-resources.canada.ca/earth-sciences/geography/download-geographical-names-data/9245,,,Province or Territory ,,
IACKL_1,,Canada,Province or Territory of Alberta,,,53.6819444,,-112.8533333,Astotin Lake,,https://natural-resources.canada.ca/earth-sciences/geography/download-geographical-names-data/9245,,,Province or Territory ,,
IARFF_1,,Canada,Province or Territory of Alberta,,,54.7166666,,-113.2841667,Athabasca,,https://natural-resources.canada.ca/earth-sciences/geography/download-geographical-names-data/9245,,,Province or Territory ,,
IACKN_1,,Canada,Province or Territory of Alberta,,,52.6644444,,-117.8833333,Athabasca Falls,,https://natural-resources.canada.ca/earth-sciences/geography/download-geographical-names-data/9245,,,Province or Territory ,,
IACKO_1,,Canada,Province or Territory of Alberta,,,52.1986111,,-117.2436111,Athabasca Glacier,,https://natural-resources.canada.ca/earth-sciences/geography/download-geographical-names-data/9245,,,Province or Territory ,,
IARYO_1,,Canada,Province or Territory of Alberta,,,52.3822222,,-118.19,Athabasca Pass,,https://natural-resources.canada.ca/earth-sciences/geography/download-geographical-names-data/9245,,,Province or Territory ,,
IACKQ_1,,Canada,Province or Territory of Alberta,,,52.383333,,-118.18889,Athabasca Pass National Historic Site of Canada,,https://natural-resources.canada.ca/earth-sciences/geography/download-geographical-names-data/9245,,,Province or Territory ,,
IATZT_1,,Canada,Province or Territory of Alberta,,,58.6666667,,-110.8333333,Athabasca River,,https://natural-resources.canada.ca/earth-sciences/geography/download-geographical-names-data/9245,,,Province or Territory ,,
IAQZZ_1,,Canada,Province or Territory of Alberta,,,53.588889,,-113.54861,Athlone,,https://natural-resources.canada.ca/earth-sciences/geography/download-geographical-names-data/9245,,,Province or Territory ,,
IATTD_1,,Canada,Province or Territory of Alberta,,,58.7391667,,-115.4836111,Atihk Sakahikun,,https://natural-resources.canada.ca/earth-sciences/geography/download-geographical-names-data/9245,,,Province or Territory ,,
IASTK_1,,Canada,Province or Territory of Alberta,,,55.9169444,,-115.6513889,Atikameg,,https://natural-resources.canada.ca/earth-sciences/geography/download-geographical-names-data/9245,,,Province or Territory ,,
IACKT_1,,Canada,Province or Territory of Alberta,,,54.6066667,,-116.8533333,Atikkamek Creek,,https://natural-resources.canada.ca/earth-sciences/geography/download-geographical-names-data/9245,,,Province or Territory ,,
IACKV_1,,Canada,Province or Territory of Alberta,,,53.5980556,,-113.7558333,Atim Creek,,https://natural-resources.canada.ca/earth-sciences/geography/download-geographical-names-data/9245,,,Province or Territory ,,
IACKW_1,,Canada,Province or Territory of Alberta,,,53.5936111,,-113.8341667,Atim Lake,,https://natural-resources.canada.ca/earth-sciences/geography/download-geographical-names-data/9245,,,Province or Territory ,,
IACKX_1,,Canada,Province or Territory of Alberta,,,51.4186111,,-114.8405556,Atkinson Creek,,https://natural-resources.canada.ca/earth-sciences/geography/download-geographical-names-data/9245,,,Province or Territory ,,
IACKZ_1,,Canada,Province or Territory of Alberta,,,50.8416667,,-110.9502778,Atlee,,https://natural-resources.canada.ca/earth-sciences/geography/download-geographical-names-data/9245,,,Province or Territory ,,
IACLB_1,,Canada,Province or Territory of Alberta,,,54.8191667,,-112.5497222,Atmore,,https://natural-resources.canada.ca/earth-sciences/geography/download-geographical-names-data/9245,,,Province or Territory ,,
IACLC_1,,Canada,Province or Territory of Alberta,,,51.3130556,,-113.0547222,Atusis Creek,,https://natural-resources.canada.ca/earth-sciences/geography/download-geographical-names-data/9245,,,Province or Territory ,,
IACLD_1,,Canada,Province or Territory of Alberta,,,53.0583333,,-110.8591667,Auburndale,,https://natural-resources.canada.ca/earth-sciences/geography/download-geographical-names-data/9245,,,Province or Territory ,,
IACLE_1,,Canada,Province or Territory of Alberta,,,57.6444445,,-110.9122222,Audet Lake,,https://natural-resources.canada.ca/earth-sciences/geography/download-geographical-names-data/9245,,,Province or Territory ,,
IACLF_1,,Canada,Province or Territory of Alberta,,,55.3994444,,-115.2533333,Auger Bay,,https://natural-resources.canada.ca/earth-sciences/geography/download-geographical-names-data/9245,,,Province or Territory ,,
IACLG_1,,Canada,Province or Territory of Alberta,,,54.7208334,,-112.5166667,Auger Lake,,https://natural-resources.canada.ca/earth-sciences/geography/download-geographical-names-data/9245,,,Province or Territory ,,
IACLH_1,,Canada,Province or Territory of Alberta,,,51.3344444,,-114.9352778,Aura Creek,,https://natural-resources.canada.ca/earth-sciences/geography/download-geographical-names-data/9245,,,Province or Territory ,,
IACLI_1,,Canada,Province or Territory of Alberta,,,50.825,,-115.5427778,Aurora Mountain,,https://natural-resources.canada.ca/earth-sciences/geography/download-geographical-names-data/9245,,,Province or Territory ,,
IACLJ_1,,Canada,Province or Territory of Alberta,,,53.5855555,,-119.8652778,Avalanche Creek,,https://natural-resources.canada.ca/earth-sciences/geography/download-geographical-names-data/9245,,,Province or Territory ,,
IACLK_1,,Canada,Province or Territory of Alberta,,,53.6161111,,-119.9108333,Avalanche Pass,,https://natural-resources.canada.ca/earth-sciences/geography/download-geographical-names-data/9245,,,Province or Territory ,,
IACLL_1,,Canada,Province or Territory of Alberta,,,55.0405555,,-112.2808333,Avenir,,https://natural-resources.canada.ca/earth-sciences/geography/download-geographical-names-data/9245,,,Province or Territory ,,
IACLN_1,,Canada,Province or Territory of Alberta,,,49.1563888,,-114.1138889,Avion Ridge,,https://natural-resources.canada.ca/earth-sciences/geography/download-geographical-names-data/9245,,,Province or Territory ,,
IACLO_1,,Canada,Province or Territory of Alberta,,,53.5,,-113.45,Avonmore,,https://natural-resources.canada.ca/earth-sciences/geography/download-geographical-names-data/9245,,,Province or Territory ,,
IACLP_1,,Canada,Province or Territory of Alberta,,,50.8444445,,-115.6430556,Aye Mountain,,https://natural-resources.canada.ca/earth-sciences/geography/download-geographical-names-data/9245,,,Province or Territory ,,
IASZP_1,,Canada,Province or Territory of Alberta,,,51.2922222,,-115.4161111,Aylmer Canyon,,https://natural-resources.canada.ca/earth-sciences/geography/download-geographical-names-data/9245,,,Province or Territory ,,
IASHC_1,,Canada,Province or Territory of Alberta,,,51.3177778,,-115.4552778,Aylmer Pass,,https://natural-resources.canada.ca/earth-sciences/geography/download-geographical-names-data/9245,,,Province or Territory ,,
IACWA_1,,Canada,Province or Territory of Alberta,,,52.4586111,,-117.0102778,Aztec Lake,,https://natural-resources.canada.ca/earth-sciences/geography/download-geographical-names-data/9245,,,Province or Territory ,,
IARPW_1,,Canada,Province or Territory of Alberta,,,50.5011111,,-113.87,Azure,,https://natural-resources.canada.ca/earth-sciences/geography/download-geographical-names-data/9245,,,Province or Territory ,,
IACWC_1,,Canada,Province or Territory of Alberta,,,53.4580556,,-119.0025,Azure Lake,,https://natural-resources.canada.ca/earth-sciences/geography/download-geographical-names-data/9245,,,Province or Territory ,,
IACWF_1,,Canada,Province or Territory of Alberta,,,51.3327778,,-116.1755556,Babel Creek,,https://natural-resources.canada.ca/earth-sciences/geography/download-geographical-names-data/9245,,,Province or Territory ,,
IACWI_1,,Canada,Province or Territory of Alberta,,,54.6469445,,-113.0786111,Babette Creek,,https://natural-resources.canada.ca/earth-sciences/geography/download-geographical-names-data/9245,,,Province or Territory ,,
IACWK_1,,Canada,Province or Territory of Alberta,,,53.1619445,,-116.7677778,Bacon Creek,,https://natural-resources.canada.ca/earth-sciences/geography/download-geographical-names-data/9245,,,Province or Territory ,,
IACWS_1,,Canada,Province or Territory of Alberta,,,55.5,,-118.3,Bad Heart,,https://natural-resources.canada.ca/earth-sciences/geography/download-geographical-names-data/9245,,,Province or Territory ,,
IACWT_1,,Canada,Province or Territory of Alberta,,,55.5522222,,-118.1930556,Bad Heart River,,https://natural-resources.canada.ca/earth-sciences/geography/download-geographical-names-data/9245,,,Province or Territory ,,
IACWV_1,,Canada,Province or Territory of Alberta,,,50.0825,,-111.7625,Bad Land Hills,,https://natural-resources.canada.ca/earth-sciences/geography/download-geographical-names-data/9245,,,Province or Territory ,,
IADNO_1,,Canada,Province or Territory of Alberta,,,57.0938889,,-114.64,Bad Rapids,,https://natural-resources.canada.ca/earth-sciences/geography/download-geographical-names-data/9245,,,Province or Territory ,,
IACWM_1,,Canada,Province or Territory of Alberta,,,52.8219445,,-110.9933333,Badger Hill,,https://natural-resources.canada.ca/earth-sciences/geography/download-geographical-names-data/9245,,,Province or Territory ,,
IADNN_1,,Canada,Province or Territory of Alberta,,,50.3802778,,-112.4644444,Badger Lake,,https://natural-resources.canada.ca/earth-sciences/geography/download-geographical-names-data/9245,,,Province or Territory ,,
IACWQ_1,,Canada,Province or Territory of Alberta,,,51.4108333,,-115.8933333,Badger Pass,,https://natural-resources.canada.ca/earth-sciences/geography/download-geographical-names-data/9245,,,Province or Territory ,,
IACWX_1,,Canada,Province or Territory of Alberta,,,52.9775,,-116.8366667,Bailey Creek,,https://natural-resources.canada.ca/earth-sciences/geography/download-geographical-names-data/9245,,,Province or Territory ,,
IADNP_1,,Canada,Province or Territory of Alberta,,,59.9461111,,-110.1705556,Bailey Lake,,https://natural-resources.canada.ca/earth-sciences/geography/download-geographical-names-data/9245,,,Province or Territory ,,
IACWY_1,,Canada,Province or Territory of Alberta,,,53.5488889,,-112.8933333,Bailey Lakes,,https://natural-resources.canada.ca/earth-sciences/geography/download-geographical-names-data/9245,,,Province or Territory ,,
IARTT_1,,Canada,Province or Territory of Alberta,,,49.6319444,,-112.9166667,Bailey's Bottom,,https://natural-resources.canada.ca/earth-sciences/geography/download-geographical-names-data/9245,,,Province or Territory ,,
IACXA_1,,Canada,Province or Territory of Alberta,,,49.2738889,,-110.3977778,Bain,,https://natural-resources.canada.ca/earth-sciences/geography/download-geographical-names-data/9245,,,Province or Territory ,,
IACXC_1,,Canada,Province or Territory of Alberta,,,51.1733333,,-113.2422222,Baintree,,https://natural-resources.canada.ca/earth-sciences/geography/download-geographical-names-data/9245,,,Province or Territory ,,
IACXD_1,,Canada,Province or Territory of Alberta,,,54.3413889,,-114.4063889,Baird Lake,,https://natural-resources.canada.ca/earth-sciences/geography/download-geographical-names-data/9245,,,Province or Territory ,,
IACXE_1,,Canada,Province or Territory of Alberta,,,51.3458333,,-116.0694444,Baker Creek,,https://natural-resources.canada.ca/earth-sciences/geography/download-geographical-names-data/9245,,,Province or Territory ,,
IACXG_1,,Canada,Province or Territory of Alberta,,,53.0347222,,-110.2502778,Baker Lake,,https://natural-resources.canada.ca/earth-sciences/geography/download-geographical-names-data/9245,,,Province or Territory ,,
IACXJ_1,,Canada,Province or Territory of Alberta,,,54.8905556,,-118.6963889,Bald Mountain Creek,,https://natural-resources.canada.ca/earth-sciences/geography/download-geographical-names-data/9245,,,Province or Territory ,,
IACXL_1,,Canada,Province or Territory of Alberta,,,51.5922222,,-116.3994444,Balfour Creek,,https://natural-resources.canada.ca/earth-sciences/geography/download-geographical-names-data/9245,,,Province or Territory ,,
IACXM_1,,Canada,Province or Territory of Alberta,,,51.5719445,,-116.4305556,Balfour Glacier,,https://natural-resources.canada.ca/earth-sciences/geography/download-geographical-names-data/9245,,,Province or Territory ,,
IACXO_1,,Canada,Province or Territory of Alberta,,,51.5872222,,-116.4719444,Balfour Pass,,https://natural-resources.canada.ca/earth-sciences/geography/download-geographical-names-data/9245,,,Province or Territory ,,
IACXP_1,,Canada,Province or Territory of Alberta,,,52.7758334,,-117.3666667,Balinhard Creek,,https://natural-resources.canada.ca/earth-sciences/geography/download-geographical-names-data/9245,,,Province or Territory ,,
IACXV_1,,Canada,Province or Territory of Alberta,,,53.5205556,,-113.2741667,Ball Lake,,https://natural-resources.canada.ca/earth-sciences/geography/download-geographical-names-data/9245,,,Province or Territory ,,
IADNS_1,,Canada,Province or Territory of Alberta,,,51.1263889,,-115.9886111,Ball Pass,,https://natural-resources.canada.ca/earth-sciences/geography/download-geographical-names-data/9245,,,Province or Territory ,,
IADNT_1,,Canada,Province or Territory of Alberta,,,51.1505556,,-115.9891667,Ball Range,,https://natural-resources.canada.ca/earth-sciences/geography/download-geographical-names-data/9245,,,Province or Territory ,,
IACXS_1,,Canada,Province or Territory of Alberta,,,53.9172223,,-114.5666667,Ballantine,,https://natural-resources.canada.ca/earth-sciences/geography/download-geographical-names-data/9245,,,Province or Territory ,,
IACXT_1,,Canada,Province or Territory of Alberta,,,55.5769444,,-117.1841667,Ballater,,https://natural-resources.canada.ca/earth-sciences/geography/download-geographical-names-data/9245,,,Province or Territory ,,
IACXX_1,,Canada,Province or Territory of Alberta,,,53.9197222,,-115.2644444,Balm,,https://natural-resources.canada.ca/earth-sciences/geography/download-geographical-names-data/9245,,,Province or Territory ,,
IACYA_1,,Canada,Province or Territory of Alberta,,,53.583333,,-113.45,Balwin,,https://natural-resources.canada.ca/earth-sciences/geography/download-geographical-names-data/9245,,,Province or Territory ,,
IACYB_1,,Canada,Province or Territory of Alberta,,,51.2133334,,-114.0094444,Balzac,,https://natural-resources.canada.ca/earth-sciences/geography/download-geographical-names-data/9245,,,Province or Territory ,,
IACYC_1,,Canada,Province or Territory of Alberta,,,54.7197222,,-113.8358333,Banana Lake,,https://natural-resources.canada.ca/earth-sciences/geography/download-geographical-names-data/9245,,,Province or Territory ,,
IACYD_1,,Canada,Province or Territory of Alberta,,,50.7183333,,-114.9180556,Banded Peak,,https://natural-resources.canada.ca/earth-sciences/geography/download-geographical-names-data/9245,,,Province or Territory ,,
IACYE_1,,Canada,Province or Territory of Alberta,,,51.1777778,,-115.5736111,Banff,,https://natural-resources.canada.ca/earth-sciences/geography/download-geographical-names-data/9245,,,Province or Territory ,,
IATZH_1,,Canada,Province or Territory of Alberta,,,51.6,,-116.05,Banff National Park of Canada,,https://natural-resources.canada.ca/earth-sciences/geography/download-geographical-names-data/9245,,,Province or Territory ,,
IATZX_1,,Canada,Province or Territory of Alberta,,,51.173333,,-115.57222,Banff Park Museum National Historic Site of Canada,,https://natural-resources.canada.ca/earth-sciences/geography/download-geographical-names-data/9245,,,Province or Territory ,,
IACYF_1,,Canada,Province or Territory of Alberta,,,51.066667,,-114.11667,Banff Trail,,https://natural-resources.canada.ca/earth-sciences/geography/download-geographical-names-data/9245,,,Province or Territory ,,
IARXJ_1,,Canada,Province or Territory of Alberta,,,51.213056,,-115.53444,Banff Training Area,,https://natural-resources.canada.ca/earth-sciences/geography/download-geographical-names-data/9245,,,Province or Territory ,,
IACYG_1,,Canada,Province or Territory of Alberta,,,54.1561111,,-111.0338889,Bangs Lake,,https://natural-resources.canada.ca/earth-sciences/geography/download-geographical-names-data/9245,,,Province or Territory ,,
IADNU_1,,Canada,Province or Territory of Alberta,,,54.5705556,,-110.2347222,Bank Bay,,https://natural-resources.canada.ca/earth-sciences/geography/download-geographical-names-data/9245,,,Province or Territory ,,
IACYH_1,,Canada,Province or Territory of Alberta,,,54.0252778,,-119.7838889,Bank Creek,,https://natural-resources.canada.ca/earth-sciences/geography/download-geographical-names-data/9245,,,Province or Territory ,,
IACYI_1,,Canada,Province or Territory of Alberta,,,51.6616667,,-115.3086111,Bankfoot Creek,,https://natural-resources.canada.ca/earth-sciences/geography/download-geographical-names-data/9245,,,Province or Territory ,,
IACYJ_1,,Canada,Province or Territory of Alberta,,,51.2075,,-115.5347222,Bankhead,,https://natural-resources.canada.ca/earth-sciences/geography/download-geographical-names-data/9245,,,Province or Territory ,,
IACYK_1,,Canada,Province or Territory of Alberta,,,53.7472223,,-113.5375,Banko Junction,,https://natural-resources.canada.ca/earth-sciences/geography/download-geographical-names-data/9245,,,Province or Territory ,,
IACYM_1,,Canada,Province or Territory of Alberta,,,51.033333,,-114.1,Bankview,,https://natural-resources.canada.ca/earth-sciences/geography/download-geographical-names-data/9245,,,Province or Territory ,,
IATRR_1,,Canada,Province or Territory of Alberta,,,53.598611,,-113.375,Bannerman,,https://natural-resources.canada.ca/earth-sciences/geography/download-geographical-names-data/9245,,,Province or Territory ,,
IACYN_1,,Canada,Province or Territory of Alberta,,,50.4938889,,-111.7333333,Bantry,,https://natural-resources.canada.ca/earth-sciences/geography/download-geographical-names-data/9245,,,Province or Territory ,,
IACYP_1,,Canada,Province or Territory of Alberta,,,54.7666667,,-113.4558333,Baptiste Creek,,https://natural-resources.canada.ca/earth-sciences/geography/download-geographical-names-data/9245,,,Province or Territory ,,
IACYQ_1,,Canada,Province or Territory of Alberta,,,54.74,,-113.5366667,Baptiste Lake,,https://natural-resources.canada.ca/earth-sciences/geography/download-geographical-names-data/9245,,,Province or Territory ,,
IACYT_1,,Canada,Province or Territory of Alberta,,,52.6736111,,-115.075,Baptiste River,,https://natural-resources.canada.ca/earth-sciences/geography/download-geographical-names-data/9245,,,Province or Territory ,,
IATZZ_1,,Canada,Province or Territory of Alberta,,,50.420278,,-114.24444,Bar U Ranch National Historic Site of Canada,,https://natural-resources.canada.ca/earth-sciences/geography/download-geographical-names-data/9245,,,Province or Territory ,,
IATSG_1,,Canada,Province or Territory of Alberta,,,53.606944,,-113.53472,Baranow,,https://natural-resources.canada.ca/earth-sciences/geography/download-geographical-names-data/9245,,,Province or Territory ,,
IACYW_1,,Canada,Province or Territory of Alberta,,,53.6347222,,-117.7094444,Barbara Creek,,https://natural-resources.canada.ca/earth-sciences/geography/download-geographical-names-data/9245,,,Province or Territory ,,
IACYX_1,,Canada,Province or Territory of Alberta,,,54.5305555,,-110.8691667,Barbara Lake,,https://natural-resources.canada.ca/earth-sciences/geography/download-geographical-names-data/9245,,,Province or Territory ,,
IACYY_1,,Canada,Province or Territory of Alberta,,,58.1033333,,-110.8591667,Barber Lake,,https://natural-resources.canada.ca/earth-sciences/geography/download-geographical-names-data/9245,,,Province or Territory ,,
IACYZ_1,,Canada,Province or Territory of Alberta,,,51.7466667,,-116.6163889,Barbette Glacier,,https://natural-resources.canada.ca/earth-sciences/geography/download-geographical-names-data/9245,,,Province or Territory ,,
IACZA_1,,Canada,Province or Territory of Alberta,,,51.725,,-116.616667,Barbette Mountain,,https://natural-resources.canada.ca/earth-sciences/geography/download-geographical-names-data/9245,,,Province or Territory ,,
IACZC_1,,Canada,Province or Territory of Alberta,,,53.8166667,,-114.0166667,Bard Lake,,https://natural-resources.canada.ca/earth-sciences/geography/download-geographical-names-data/9245,,,Province or Territory ,,
IACZD_1,,Canada,Province or Territory of Alberta,,,53.2986111,,-112.6875,Bardo,,https://natural-resources.canada.ca/earth-sciences/geography/download-geographical-names-data/9245,,,Province or Territory ,,
IACZE_1,,Canada,Province or Territory of Alberta,,,49.2344444,,-110.0144444,Bare Creek,,https://natural-resources.canada.ca/earth-sciences/geography/download-geographical-names-data/9245,,,Province or Territory ,,
IACZF_1,,Canada,Province or Territory of Alberta,,,51.58,,-115.731111,Bare Range,,https://natural-resources.canada.ca/earth-sciences/geography/download-geographical-names-data/9245,,,Province or Territory ,,
IACZG_1,,Canada,Province or Territory of Alberta,,,51.5480555,,-113.4730556,Bargrave,,https://natural-resources.canada.ca/earth-sciences/geography/download-geographical-names-data/9245,,,Province or Territory ,,
IACZH_1,,Canada,Province or Territory of Alberta,,,54.1805556,,-112.6266667,Barich,,https://natural-resources.canada.ca/earth-sciences/geography/download-geographical-names-data/9245,,,Province or Territory ,,
IACZJ_1,,Canada,Province or Territory of Alberta,,,53.3722222,,-116.8722222,Baril Creek,,https://natural-resources.canada.ca/earth-sciences/geography/download-geographical-names-data/9245,,,Province or Territory ,,
IACZK_1,,Canada,Province or Territory of Alberta,,,58.7652778,,-111.6855556,Baril Lake,,https://natural-resources.canada.ca/earth-sciences/geography/download-geographical-names-data/9245,,,Province or Territory ,,
IACZL_1,,Canada,Province or Territory of Alberta,,,50.2994444,,-114.7563889,Baril Peak,,https://natural-resources.canada.ca/earth-sciences/geography/download-geographical-names-data/9245,,,Province or Territory ,,
IACZM_1,,Canada,Province or Territory of Alberta,,,58.9161111,,-111.7405556,Baril River,,https://natural-resources.canada.ca/earth-sciences/geography/download-geographical-names-data/9245,,,Province or Territory ,,
IADNW_1,,Canada,Province or Territory of Alberta,,,50.9019444,,-112.3527778,Barkenhouse Lake,,https://natural-resources.canada.ca/earth-sciences/geography/download-geographical-names-data/9245,,,Province or Territory ,,
IACZN_1,,Canada,Province or Territory of Alberta,,,53.05,,-112.8166667,Barlee Junction,,https://natural-resources.canada.ca/earth-sciences/geography/download-geographical-names-data/9245,,,Province or Territory ,,
IACZO_1,,Canada,Province or Territory of Alberta,,,51.0080555,,-113.9633333,Barlow,,https://natural-resources.canada.ca/earth-sciences/geography/download-geographical-names-data/9245,,,Province or Territory ,,
IACZQ_1,,Canada,Province or Territory of Alberta,,,49.3652778,,-114.3447222,Barnaby Creek,,https://natural-resources.canada.ca/earth-sciences/geography/download-geographical-names-data/9245,,,Province or Territory ,,
IACZR_1,,Canada,Province or Territory of Alberta,,,49.3380555,,-114.3819444,Barnaby Lake,,https://natural-resources.canada.ca/earth-sciences/geography/download-geographical-names-data/9245,,,Province or Territory ,,
IAGDE_1,,Canada,Province or Territory of Alberta,,,49.3,,-114.3666667,Barnaby Ridge,,https://natural-resources.canada.ca/earth-sciences/geography/download-geographical-names-data/9245,,,Province or Territory ,,
IACZS_1,,Canada,Province or Territory of Alberta,,,51.7430556,,-116.9458333,Barnard Dent Group,,https://natural-resources.canada.ca/earth-sciences/geography/download-geographical-names-data/9245,,,Province or Territory ,,
IACZU_1,,Canada,Province or Territory of Alberta,,,54.7925,,-111.8266667,Barnegat,,https://natural-resources.canada.ca/earth-sciences/geography/download-geographical-names-data/9245,,,Province or Territory ,,
IACZW_1,,Canada,Province or Territory of Alberta,,,51.0580556,,-114.6755556,Barnes Ridge,,https://natural-resources.canada.ca/earth-sciences/geography/download-geographical-names-data/9245,,,Province or Territory ,,
IACZY_1,,Canada,Province or Territory of Alberta,,,52.2619444,,-112.5813889,Barnett Lake,,https://natural-resources.canada.ca/earth-sciences/geography/download-geographical-names-data/9245,,,Province or Territory ,,
IADAA_1,,Canada,Province or Territory of Alberta,,,49.7605556,,-112.2633333,Barnwell,,https://natural-resources.canada.ca/earth-sciences/geography/download-geographical-names-data/9245,,,Province or Territory ,,
IADAB_1,,Canada,Province or Territory of Alberta,,,49.9966667,,-113.0830556,Barons,,https://natural-resources.canada.ca/earth-sciences/geography/download-geographical-names-data/9245,,,Province or Territory ,,
IADKU_1,,Canada,Province or Territory of Alberta,,,55.1866667,,-119.9008333,Barr Creek,,https://natural-resources.canada.ca/earth-sciences/geography/download-geographical-names-data/9245,,,Province or Territory ,,
IADKW_1,,Canada,Province or Territory of Alberta,,,54.2744445,,-110.695,Barreyre Lake,,https://natural-resources.canada.ca/earth-sciences/geography/download-geographical-names-data/9245,,,Province or Territory ,,
IADKX_1,,Canada,Province or Territory of Alberta,,,54.1216667,,-114.4036111,Barrhead,,https://natural-resources.canada.ca/earth-sciences/geography/download-geographical-names-data/9245,,,Province or Territory ,,
IADLA_1,,Canada,Province or Territory of Alberta,,,53.4036111,,-119.4822222,Barricade Mountain,,https://natural-resources.canada.ca/earth-sciences/geography/download-geographical-names-data/9245,,,Province or Territory ,,
IAIZA_1,,Canada,Province or Territory of Alberta,,,51.016667,,-115.06667,Barrier Lake,,https://natural-resources.canada.ca/earth-sciences/geography/download-geographical-names-data/9245,,,Province or Territory ,,
IADLC_1,,Canada,Province or Territory of Alberta,,,51.6575,,-115.6169444,Barrier Mountain,,https://natural-resources.canada.ca/earth-sciences/geography/download-geographical-names-data/9245,,,Province or Territory ,,
IAIZB_1,,Canada,Province or Territory of Alberta,,,59.2508334,,-111.2247222,Barrow Lake,,https://natural-resources.canada.ca/earth-sciences/geography/download-geographical-names-data/9245,,,Province or Territory ,,
IADLD_1,,Canada,Province or Territory of Alberta,,,51.8441666,,-114.9316667,Barry Creek,,https://natural-resources.canada.ca/earth-sciences/geography/download-geographical-names-data/9245,,,Province or Territory ,,
IADLE_1,,Canada,Province or Territory of Alberta,,,51.1152778,,-111.4527778,Bartman Reservoir,,https://natural-resources.canada.ca/earth-sciences/geography/download-geographical-names-data/9245,,,Province or Territory ,,
IARAT_1,,Canada,Province or Territory of Alberta,,,54.035,,-114.5672222,Barton Lake,,https://natural-resources.canada.ca/earth-sciences/geography/download-geographical-names-data/9245,,,Province or Territory ,,
IADLF_1,,Canada,Province or Territory of Alberta,,,55.3941667,,-116.9319444,Bartsch Creek,,https://natural-resources.canada.ca/earth-sciences/geography/download-geographical-names-data/9245,,,Province or Territory ,,
IADLG_1,,Canada,Province or Territory of Alberta,,,50.8780556,,-113.1661111,Bartstow,,https://natural-resources.canada.ca/earth-sciences/geography/download-geographical-names-data/9245,,,Province or Territory ,,
IAAGW_1,,Canada,Province or Territory of Alberta,,,54.4075,,-110.27556,Base des Forces canadiennes Cold Lake,,https://natural-resources.canada.ca/earth-sciences/geography/download-geographical-names-data/9245,,,Province or Territory ,,
IAAHI_1,,Canada,Province or Territory of Alberta,,,50.2733334,,-111.175,Base des Forces canadiennes Suffield,,https://natural-resources.canada.ca/earth-sciences/geography/download-geographical-names-data/9245,,,Province or Territory ,,
IAIZC_1,,Canada,Province or Territory of Alberta,,,55.6491667,,-111.845,Base Lake,,https://natural-resources.canada.ca/earth-sciences/geography/download-geographical-names-data/9245,,,Province or Territory ,,
IADLJ_1,,Canada,Province or Territory of Alberta,,,52.2069445,,-115.1927778,Base Line Creek,,https://natural-resources.canada.ca/earth-sciences/geography/download-geographical-names-data/9245,,,Province or Territory ,,
IADLM_1,,Canada,Province or Territory of Alberta,,,54.2375,,-119.845,Base Line Lake,,https://natural-resources.canada.ca/earth-sciences/geography/download-geographical-names-data/9245,,,Province or Territory ,,
IADLK_1,,Canada,Province or Territory of Alberta,,,53.5322223,,-117.3505556,Baseline Creek,,https://natural-resources.canada.ca/earth-sciences/geography/download-geographical-names-data/9245,,,Province or Territory ,,
IADLL_1,,Canada,Province or Territory of Alberta,,,54.2338889,,-115.9136111,Baseline Lake,,https://natural-resources.canada.ca/earth-sciences/geography/download-geographical-names-data/9245,,,Province or Territory ,,
IADLN_1,,Canada,Province or Territory of Alberta,,,52.1333333,,-115.4291667,Baseline Mountain,,https://natural-resources.canada.ca/earth-sciences/geography/download-geographical-names-data/9245,,,Province or Territory ,,
IADLO_1,,Canada,Province or Territory of Alberta,,,52.5830555,,-112.9702778,Bashaw,,https://natural-resources.canada.ca/earth-sciences/geography/download-geographical-names-data/9245,,,Province or Territory ,,
IADLP_1,,Canada,Province or Territory of Alberta,,,52.8055556,,-118.3422222,Basilica Mountain,,https://natural-resources.canada.ca/earth-sciences/geography/download-geographical-names-data/9245,,,Province or Territory ,,
IADLQ_1,,Canada,Province or Territory of Alberta,,,50.7875,,-112.4683333,Bassano,,https://natural-resources.canada.ca/earth-sciences/geography/download-geographical-names-data/9245,,,Province or Territory ,,
IADLT_1,,Canada,Province or Territory of Alberta,,,58.3194444,,-118.4777778,Basset Lake,,https://natural-resources.canada.ca/earth-sciences/geography/download-geographical-names-data/9245,,,Province or Territory ,,
IADLU_1,,Canada,Province or Territory of Alberta,,,52.7097222,,-118.345,Bastion Peak,,https://natural-resources.canada.ca/earth-sciences/geography/download-geographical-names-data/9245,,,Province or Territory ,,
IADME_1,,Canada,Province or Territory of Alberta,,,56.3,,-114.95,Bat Lake,,https://natural-resources.canada.ca/earth-sciences/geography/download-geographical-names-data/9245,,,Province or Territory ,,
IADLV_1,,Canada,Province or Territory of Alberta,,,51.0380555,,-114.8127778,Bateman Creek,,https://natural-resources.canada.ca/earth-sciences/geography/download-geographical-names-data/9245,,,Province or Territory ,,
IADLW_1,,Canada,Province or Territory of Alberta,,,51.0905556,,-114.5938889,Bateman Ridge,,https://natural-resources.canada.ca/earth-sciences/geography/download-geographical-names-data/9245,,,Province or Territory ,,
IADLX_1,,Canada,Province or Territory of Alberta,,,54.2047222,,-110.025,Bates Lake,,https://natural-resources.canada.ca/earth-sciences/geography/download-geographical-names-data/9245,,,Province or Territory ,,
IADLY_1,,Canada,Province or Territory of Alberta,,,51.4408333,,-116.2077778,Bath Creek,,https://natural-resources.canada.ca/earth-sciences/geography/download-geographical-names-data/9245,,,Province or Territory ,,
IADMA_1,,Canada,Province or Territory of Alberta,,,51.5166666,,-116.3833333,Bath Glacier,,https://natural-resources.canada.ca/earth-sciences/geography/download-geographical-names-data/9245,,,Province or Territory ,,
IADMG_1,,Canada,Province or Territory of Alberta,,,52.8422222,,-110.6555556,Battensby Lake,,https://natural-resources.canada.ca/earth-sciences/geography/download-geographical-names-data/9245,,,Province or Territory ,,
IADMH_1,,Canada,Province or Territory of Alberta,,,51.6366667,,-111.8227778,Batter Junction,,https://natural-resources.canada.ca/earth-sciences/geography/download-geographical-names-data/9245,,,Province or Territory ,,
IADMJ_1,,Canada,Province or Territory of Alberta,,,52.4488889,,-111.4452778,Battle Bend,,https://natural-resources.canada.ca/earth-sciences/geography/download-geographical-names-data/9245,,,Province or Territory ,,
IADMK_1,,Canada,Province or Territory of Alberta,,,52.7094444,,-111.1419444,Battle Butte,,https://natural-resources.canada.ca/earth-sciences/geography/download-geographical-names-data/9245,,,Province or Territory ,,
IAIZZ_1,,Canada,Province or Territory of Alberta,,,49.6483333,,-110.005,Battle Creek,,https://natural-resources.canada.ca/earth-sciences/geography/download-geographical-names-data/9245,,,Province or Territory ,,
IADMM_1,,Canada,Province or Territory of Alberta,,,52.9683333,,-114.1891667,Battle Lake,,https://natural-resources.canada.ca/earth-sciences/geography/download-geographical-names-data/9245,,,Province or Territory ,,
IARTK_1,,Canada,Province or Territory of Alberta,,,52.8572222,,-110,Battle River,,https://natural-resources.canada.ca/earth-sciences/geography/download-geographical-names-data/9245,,,Province or Territory ,,
IADMV_1,,Canada,Province or Territory of Alberta,,,54.1047222,,-111.6061111,Batty Lake,,https://natural-resources.canada.ca/earth-sciences/geography/download-geographical-names-data/9245,,,Province or Territory ,,
IATRZ_1,,Canada,Province or Territory of Alberta,,,53.633333,,-113.50139,Baturyn,,https://natural-resources.canada.ca/earth-sciences/geography/download-geographical-names-data/9245,,,Province or Territory ,,
IADMX_1,,Canada,Province or Territory of Alberta,,,49.1255556,,-114.0202778,Bauerman Creek,,https://natural-resources.canada.ca/earth-sciences/geography/download-geographical-names-data/9245,,,Province or Territory ,,
IASTW_1,,Canada,Province or Territory of Alberta,,,53.2844445,,-111.0494444,Bauer's Lake,,https://natural-resources.canada.ca/earth-sciences/geography/download-geographical-names-data/9245,,,Province or Territory ,,
IAKEQ_1,,Canada,Province or Territory of Alberta,,,52.9194444,,-112.466111,Bawlf,,https://natural-resources.canada.ca/earth-sciences/geography/download-geographical-names-data/9245,,,Province or Territory ,,
IADNE_1,,Canada,Province or Territory of Alberta,,,52.9058333,,-110.7216667,Baxter Lakes,,https://natural-resources.canada.ca/earth-sciences/geography/download-geographical-names-data/9245,,,Province or Territory ,,
IADNC_1,,Canada,Province or Territory of Alberta,,,55.825,,-119.9061111,Bay Tree,,https://natural-resources.canada.ca/earth-sciences/geography/download-geographical-names-data/9245,,,Province or Territory ,,
IADMZ_1,,Canada,Province or Territory of Alberta,,,57.7694445,,-112.4011111,Bayard Lake,,https://natural-resources.canada.ca/earth-sciences/geography/download-geographical-names-data/9245,,,Province or Territory ,,
IADNA_1,,Canada,Province or Territory of Alberta,,,51.2730555,,-114.7905556,Baymar Creek,,https://natural-resources.canada.ca/earth-sciences/geography/download-geographical-names-data/9245,,,Province or Territory ,,
IADNB_1,,Canada,Province or Territory of Alberta,,,59.9338889,,-110.3036111,Bayonet Lake,,https://natural-resources.canada.ca/earth-sciences/geography/download-geographical-names-data/9245,,,Province or Territory ,,
IADND_1,,Canada,Province or Territory of Alberta,,,50.966667,,-114.1,Bayview,,https://natural-resources.canada.ca/earth-sciences/geography/download-geographical-names-data/9245,,,Province or Territory ,,
IADNZ_1,,Canada,Province or Territory of Alberta,,,53.5416666,,-114.1219444,Beach Corner,,https://natural-resources.canada.ca/earth-sciences/geography/download-geographical-names-data/9245,,,Province or Territory ,,
IADOA_1,,Canada,Province or Territory of Alberta,,,54.1797223,,-111.1525,Beacon Corner,,https://natural-resources.canada.ca/earth-sciences/geography/download-geographical-names-data/9245,,,Province or Territory ,,
IATRE_1,,Canada,Province or Territory of Alberta,,,53.573611,,-113.40694,Beacon Heights,,https://natural-resources.canada.ca/earth-sciences/geography/download-geographical-names-data/9245,,,Province or Territory ,,
IADOC_1,,Canada,Province or Territory of Alberta,,,52.5397222,,-118.2730556,Beacon Lake,,https://natural-resources.canada.ca/earth-sciences/geography/download-geographical-names-data/9245,,,Province or Territory ,,
IADOE_1,,Canada,Province or Territory of Alberta,,,52.5402777,,-118.2422222,Beacon Peak,,https://natural-resources.canada.ca/earth-sciences/geography/download-geographical-names-data/9245,,,Province or Territory ,,
IAJAA_1,,Canada,Province or Territory of Alberta,,,50.0669444,,-114.2511111,Beagle Creek,,https://natural-resources.canada.ca/earth-sciences/geography/download-geographical-names-data/9245,,,Province or Territory ,,
IADOI_1,,Canada,Province or Territory of Alberta,,,56.2172222,,-119.8186111,Bear Canyon,,https://natural-resources.canada.ca/earth-sciences/geography/download-geographical-names-data/9245,,,Province or Territory ,,
IADOJ_1,,Canada,Province or Territory of Alberta,,,49.1508333,,-111.2052778,Bear Creek,,https://natural-resources.canada.ca/earth-sciences/geography/download-geographical-names-data/9245,,,Province or Territory ,,
IADOT_1,,Canada,Province or Territory of Alberta,,,52.8563889,,-113.5355556,Bear Hills,,https://natural-resources.canada.ca/earth-sciences/geography/download-geographical-names-data/9245,,,Province or Territory ,,
IADYR_1,,Canada,Province or Territory of Alberta,,,55.2516667,,-118.9958333,Bear Lake,,https://natural-resources.canada.ca/earth-sciences/geography/download-geographical-names-data/9245,,,Province or Territory ,,
IASTU_1,,Canada,Province or Territory of Alberta,,,50.2183333,,-114.4305556,Bear Pond,,https://natural-resources.canada.ca/earth-sciences/geography/download-geographical-names-data/9245,,,Province or Territory ,,
IADYT_1,,Canada,Province or Territory of Alberta,,,58.3308333,,-115.4138889,Bear River,,https://natural-resources.canada.ca/earth-sciences/geography/download-geographical-names-data/9245,,,Province or Territory ,,
IADYZ_1,,Canada,Province or Territory of Alberta,,,51.6394444,,-114.7288889,Bear Valley,,https://natural-resources.canada.ca/earth-sciences/geography/download-geographical-names-data/9245,,,Province or Territory ,,
IADOF_1,,Canada,Province or Territory of Alberta,,,51.8538889,,-114.9230556,Bearberry,,https://natural-resources.canada.ca/earth-sciences/geography/download-geographical-names-data/9245,,,Province or Territory ,,
IADOG_1,,Canada,Province or Territory of Alberta,,,51.7994444,,-114.635,Bearberry Creek,,https://natural-resources.canada.ca/earth-sciences/geography/download-geographical-names-data/9245,,,Province or Territory ,,
IADOH_1,,Canada,Province or Territory of Alberta,,,51.7791667,,-114.7752778,Bearberry Prairie,,https://natural-resources.canada.ca/earth-sciences/geography/download-geographical-names-data/9245,,,Province or Territory ,,
IADOS_1,,Canada,Province or Territory of Alberta,,,56.0236111,,-116.9713889,Bearhead Creek,,https://natural-resources.canada.ca/earth-sciences/geography/download-geographical-names-data/9245,,,Province or Territory ,,
IADYJ_1,,Canada,Province or Territory of Alberta,,,52.9386111,,-113.6138889,Bearhills Lake,,https://natural-resources.canada.ca/earth-sciences/geography/download-geographical-names-data/9245,,,Province or Territory ,,
IADYW_1,,Canada,Province or Territory of Alberta,,,49.0658334,,-113.9161111,Bears Hump,,https://natural-resources.canada.ca/earth-sciences/geography/download-geographical-names-data/9245,,,Province or Territory ,,
IATPG_1,,Canada,Province or Territory of Alberta,,,53.441667,,-113.5,Bearspaw,,https://natural-resources.canada.ca/earth-sciences/geography/download-geographical-names-data/9245,,,Province or Territory ,,
IADYY_1,,Canada,Province or Territory of Alberta,,,54.2041667,,-110.5372222,Beartrap Lake,,https://natural-resources.canada.ca/earth-sciences/geography/download-geographical-names-data/9245,,,Province or Territory ,,
IADZA_1,,Canada,Province or Territory of Alberta,,,56.5194444,,-117.6844444,Beaton Creek,,https://natural-resources.canada.ca/earth-sciences/geography/download-geographical-names-data/9245,,,Province or Territory ,,
IADZB_1,,Canada,Province or Territory of Alberta,,,52.8805556,,-117.5225,Beatty Creek,,https://natural-resources.canada.ca/earth-sciences/geography/download-geographical-names-data/9245,,,Province or Territory ,,
IADZC_1,,Canada,Province or Territory of Alberta,,,59.8605555,,-118.0522222,Beatty Lake,,https://natural-resources.canada.ca/earth-sciences/geography/download-geographical-names-data/9245,,,Province or Territory ,,
IATYN_1,,Canada,Province or Territory of Alberta,,,58.219444,,-110.01111,Beatty River,,https://natural-resources.canada.ca/earth-sciences/geography/download-geographical-names-data/9245,,,Province or Territory ,,
IAQOH_1,,Canada,Province or Territory of Alberta,,,50.3955556,,-114.4686111,Beaudry Lakes,,https://natural-resources.canada.ca/earth-sciences/geography/download-geographical-names-data/9245,,,Province or Territory ,,
IATSB_1,,Canada,Province or Territory of Alberta,,,53.601389,,-113.50139,Beaumaris,,https://natural-resources.canada.ca/earth-sciences/geography/download-geographical-names-data/9245,,,Province or Territory ,,
IADZF_1,,Canada,Province or Territory of Alberta,,,53.3525,,-113.4152778,Beaumont,,https://natural-resources.canada.ca/earth-sciences/geography/download-geographical-names-data/9245,,,Province or Territory ,,
IADZG_1,,Canada,Province or Territory of Alberta,,,51.2161111,,-114.6127778,Beaupré Creek,,https://natural-resources.canada.ca/earth-sciences/geography/download-geographical-names-data/9245,,,Province or Territory ,,
IADZH_1,,Canada,Province or Territory of Alberta,,,51.2683333,,-114.6813889,Beaupré Hill,,https://natural-resources.canada.ca/earth-sciences/geography/download-geographical-names-data/9245,,,Province or Territory ,,
IADZI_1,,Canada,Province or Territory of Alberta,,,51.2394444,,-114.6672222,Beaupré Lake,,https://natural-resources.canada.ca/earth-sciences/geography/download-geographical-names-data/9245,,,Province or Territory ,,
IADZK_1,,Canada,Province or Territory of Alberta,,,52.3219444,,-117.3252778,Beauty Creek,,https://natural-resources.canada.ca/earth-sciences/geography/download-geographical-names-data/9245,,,Province or Territory ,,
IADZL_1,,Canada,Province or Territory of Alberta,,,49.4086111,,-114.0997222,Beauvais Lake,,https://natural-resources.canada.ca/earth-sciences/geography/download-geographical-names-data/9245,,,Province or Territory ,,
IAADM_1,,Canada,Province or Territory of Alberta,,,49.4141667,,-114.115,Beauvais Lake Provincial Park,,https://natural-resources.canada.ca/earth-sciences/geography/download-geographical-names-data/9245,,,Province or Territory ,,
IADZM_1,,Canada,Province or Territory of Alberta,,,53.6588889,,-111.3661111,Beauvallon,,https://natural-resources.canada.ca/earth-sciences/geography/download-geographical-names-data/9245,,,Province or Territory ,,
IASKZ_1,,Canada,Province or Territory of Alberta,,,53.6494444,,-111.3822222,Beauvallon Lake,,https://natural-resources.canada.ca/earth-sciences/geography/download-geographical-names-data/9245,,,Province or Territory ,,
IADZN_1,,Canada,Province or Territory of Alberta,,,52.8830556,,-118.0597222,Beauvert Lake,,https://natural-resources.canada.ca/earth-sciences/geography/download-geographical-names-data/9245,,,Province or Territory ,,
IASPA_1,,Canada,Province or Territory of Alberta,,,53.67,,-112.8386111,Beaver Bay,,https://natural-resources.canada.ca/earth-sciences/geography/download-geographical-names-data/9245,,,Province or Territory ,,
IADZQ_1,,Canada,Province or Territory of Alberta,,,53.2041666,,-118.0663889,Beaver Bluffs,,https://natural-resources.canada.ca/earth-sciences/geography/download-geographical-names-data/9245,,,Province or Territory ,,
