ID,contactDetails,country,description,endDate,function,latitude,locality,longitude,name,postCode,sourceRecordLink,startDate,state,type,url,warning
IASNO_1,,Canada,Province - Alberta,,,52.7086111,,-117.9111111,16 1/2 Mile Lake,,https://natural-resources.canada.ca/earth-sciences/geography/download-geographical-names-data/9245,,,Province,,
IASKY_1,,Canada,Province - Alberta,,,56.7513889,,-110.525,3 Channels Area,,https://natural-resources.canada.ca/earth-sciences/geography/download-geographical-names-data/9245,,,Province,,
IASLL_1,,Canada,Province - Alberta,,,56.305,,-110.8905556,49 Lake,,https://natural-resources.canada.ca/earth-sciences/geography/download-geographical-names-data/9245,,,Province,,
IASLJ_1,,Canada,Province - Alberta,,,56.3138889,,-110.9436111,51 Lake,,https://natural-resources.canada.ca/earth-sciences/geography/download-geographical-names-data/9245,,,Province,,
IASLM_1,,Canada,Province - Alberta,,,56.3522222,,-110.9894444,54 Lake,,https://natural-resources.canada.ca/earth-sciences/geography/download-geographical-names-data/9245,,,Province,,
IASLK_1,,Canada,Province - Alberta,,,56.3661111,,-110.9938889,55 Lake,,https://natural-resources.canada.ca/earth-sciences/geography/download-geographical-names-data/9245,,,Province,,
IAPUX_1,,Canada,Province - Alberta,,,51.05,,-114.93333,Abbeydale,,https://natural-resources.canada.ca/earth-sciences/geography/download-geographical-names-data/9245,,,Province,,
IAPUY_1,,Canada,Province - Alberta,,,51.3638889,,-116.2872222,Abbot Pass,,https://natural-resources.canada.ca/earth-sciences/geography/download-geographical-names-data/9245,,,Province,,
IATZR_1,,Canada,Province - Alberta,,,51.363611,,-116.28917,Abbot Pass Refuge Cabin National Historic Site of Canada,,https://natural-resources.canada.ca/earth-sciences/geography/download-geographical-names-data/9245,,,Province,,
IAPVA_1,,Canada,Province - Alberta,,,53.9172223,,-118.9980556,Abbott Creek,,https://natural-resources.canada.ca/earth-sciences/geography/download-geographical-names-data/9245,,,Province,,
IAPUZ_1,,Canada,Province - Alberta,,,53.566667,,-113.38333,Abbottsfield,,https://natural-resources.canada.ca/earth-sciences/geography/download-geographical-names-data/9245,,,Province,,
IAECP_1,,Canada,Province - Alberta,,,54.2377778,,-113.0277778,Abee,,https://natural-resources.canada.ca/earth-sciences/geography/download-geographical-names-data/9245,,,Province,,
IAQVM_1,,Canada,Province - Alberta,,,51.3847223,,-116.2430556,Aberdeen Glacier,,https://natural-resources.canada.ca/earth-sciences/geography/download-geographical-names-data/9245,,,Province,,
IAPVD_1,,Canada,Province - Alberta,,,54.1083333,,-111.4861111,Abilene,,https://natural-resources.canada.ca/earth-sciences/geography/download-geographical-names-data/9245,,,Province,,
IAECR_1,,Canada,Province - Alberta,,,52.2236111,,-116.4272222,Abraham Lake,,https://natural-resources.canada.ca/earth-sciences/geography/download-geographical-names-data/9245,,,Province,,
IAPVF_1,,Canada,Province - Alberta,,,50.8566667,,-114.0402778,Academy,,https://natural-resources.canada.ca/earth-sciences/geography/download-geographical-names-data/9245,,,Province,,
IAPVH_1,,Canada,Province - Alberta,,,51.2,,-110.4,Acadia,,https://natural-resources.canada.ca/earth-sciences/geography/download-geographical-names-data/9245,,,Province,,
IAPVI_1,,Canada,Province - Alberta,,,51.1569445,,-110.2097222,Acadia Valley,,https://natural-resources.canada.ca/earth-sciences/geography/download-geographical-names-data/9245,,,Province,,
IAPVJ_1,,Canada,Province - Alberta,,,53.5502778,,-113.7747222,Acheson,,https://natural-resources.canada.ca/earth-sciences/geography/download-geographical-names-data/9245,,,Province,,
IAPVO_1,,Canada,Province - Alberta,,,51.4972222,,-113.5086111,Acme,,https://natural-resources.canada.ca/earth-sciences/geography/download-geographical-names-data/9245,,,Province,,
IAECS_1,,Canada,Province - Alberta,,,59.0769444,,-117.7330556,Adair Creek,,https://natural-resources.canada.ca/earth-sciences/geography/download-geographical-names-data/9245,,,Province,,
IAPVM_1,,Canada,Province - Alberta,,,53.6911111,,-118.5530556,Adams Creek,,https://natural-resources.canada.ca/earth-sciences/geography/download-geographical-names-data/9245,,,Province,,
IAPVP_1,,Canada,Province - Alberta,,,53.7472223,,-118.6916667,Adams Creek Trail,,https://natural-resources.canada.ca/earth-sciences/geography/download-geographical-names-data/9245,,,Province,,
IBACW_1,,Canada,Province - Alberta,,,52.0683333,,-114.4847222,Adams Lake,,https://natural-resources.canada.ca/earth-sciences/geography/download-geographical-names-data/9245,,,Province,,
IAECT_1,,Canada,Province - Alberta,,,58.3894444,,-115.0769444,Adams Landing,,https://natural-resources.canada.ca/earth-sciences/geography/download-geographical-names-data/9245,,,Province,,
IAPVQ_1,,Canada,Province - Alberta,,,53.7258333,,-118.5680556,Adams Lookout,,https://natural-resources.canada.ca/earth-sciences/geography/download-geographical-names-data/9245,,,Province,,
IAPVR_1,,Canada,Province - Alberta,,,53.6152778,,-112.9258333,Adamson Lake,,https://natural-resources.canada.ca/earth-sciences/geography/download-geographical-names-data/9245,,,Province,,
IAPVS_1,,Canada,Province - Alberta,,,54.133333,,-119.35,Adelade Creek,,https://natural-resources.canada.ca/earth-sciences/geography/download-geographical-names-data/9245,,,Province,,
IAPVT_1,,Canada,Province - Alberta,,,49.0247222,,-111.2986111,Aden,,https://natural-resources.canada.ca/earth-sciences/geography/download-geographical-names-data/9245,,,Province,,
IAPVV_1,,Canada,Province - Alberta,,,53.8538889,,-119.0633333,Adolphus Creek,,https://natural-resources.canada.ca/earth-sciences/geography/download-geographical-names-data/9245,,,Province,,
IAPVW_1,,Canada,Province - Alberta,,,53.1711111,,-119.1177778,Adolphus Lake,,https://natural-resources.canada.ca/earth-sciences/geography/download-geographical-names-data/9245,,,Province,,
IAPVY_1,,Canada,Province - Alberta,,,53.1141667,,-113.1458333,Adrian Lake,,https://natural-resources.canada.ca/earth-sciences/geography/download-geographical-names-data/9245,,,Province,,
IAQPP_1,,Canada,Province - Alberta,,,57.1852778,,-120.0013889,Adskwatim Creek,,https://natural-resources.canada.ca/earth-sciences/geography/download-geographical-names-data/9245,,,Province,,
IAPWA_1,,Canada,Province - Alberta,,,51.4180556,,-112.6213889,Aerial,,https://natural-resources.canada.ca/earth-sciences/geography/download-geographical-names-data/9245,,,Province,,
IAPWB_1,,Canada,Province - Alberta,,,49.1338889,,-113.24,Aetna,,https://natural-resources.canada.ca/earth-sciences/geography/download-geographical-names-data/9245,,,Province,,
IAPWE_1,,Canada,Province - Alberta,,,49.1716666,,-113.1930556,Aetna Creek,,https://natural-resources.canada.ca/earth-sciences/geography/download-geographical-names-data/9245,,,Province,,
IAPWF_1,,Canada,Province - Alberta,,,54.4344444,,-110.1697222,African Lake,,https://natural-resources.canada.ca/earth-sciences/geography/download-geographical-names-data/9245,,,Province,,
IAPWG_1,,Canada,Province - Alberta,,,52.2997222,,-116.9863889,Afternoon Peak,,https://natural-resources.canada.ca/earth-sciences/geography/download-geographical-names-data/9245,,,Province,,
IAPWH_1,,Canada,Province - Alberta,,,58.2208333,,-110.1647222,Agar Lake,,https://natural-resources.canada.ca/earth-sciences/geography/download-geographical-names-data/9245,,,Province,,
IAPWI_1,,Canada,Province - Alberta,,,50.1483334,,-111.3038889,Agatha,,https://natural-resources.canada.ca/earth-sciences/geography/download-geographical-names-data/9245,,,Province,,
IAPWJ_1,,Canada,Province - Alberta,,,55.4513889,,-116.6416667,Aggie,,https://natural-resources.canada.ca/earth-sciences/geography/download-geographical-names-data/9245,,,Province,,
IAQFM_1,,Canada,Province - Alberta,,,55.8077778,,-112.5244444,Agnes Lake,,https://natural-resources.canada.ca/earth-sciences/geography/download-geographical-names-data/9245,,,Province,,
IASYF_1,,Canada,Province - Alberta,,,56.9047222,,-113.6280556,Aguhway Lake,,https://natural-resources.canada.ca/earth-sciences/geography/download-geographical-names-data/9245,,,Province,,
IASTP_1,,Canada,Province - Alberta,,,57.7605555,,-112.5772222,A-H Lake,,https://natural-resources.canada.ca/earth-sciences/geography/download-geographical-names-data/9245,,,Province,,
IAQFQ_1,,Canada,Province - Alberta,,,51.805,,-116.6680556,Aiguille Peak,,https://natural-resources.canada.ca/earth-sciences/geography/download-geographical-names-data/9245,,,Province,,
IAQFR_1,,Canada,Province - Alberta,,,51.2922222,,-114.0141667,Airdrie,,https://natural-resources.canada.ca/earth-sciences/geography/download-geographical-names-data/9245,,,Province,,
IAQFS_1,,Canada,Province - Alberta,,,49.0238889,,-114.0347222,Akamina Lake,,https://natural-resources.canada.ca/earth-sciences/geography/download-geographical-names-data/9245,,,Province,,
IAQFT_1,,Canada,Province - Alberta,,,49.0244445,,-114.0544444,Akamina Pass,,https://natural-resources.canada.ca/earth-sciences/geography/download-geographical-names-data/9245,,,Province,,
IAQFU_1,,Canada,Province - Alberta,,,53.475,,-111.8416667,Akasu Hill,,https://natural-resources.canada.ca/earth-sciences/geography/download-geographical-names-data/9245,,,Province,,
IAQFV_1,,Canada,Province - Alberta,,,53.5094444,,-111.8230556,Akasu Lake,,https://natural-resources.canada.ca/earth-sciences/geography/download-geographical-names-data/9245,,,Province,,
IAQFW_1,,Canada,Province - Alberta,,,53.6022222,,-113.2355556,Akenside,,https://natural-resources.canada.ca/earth-sciences/geography/download-geographical-names-data/9245,,,Province,,
IATUT_1,,Canada,Province - Alberta,,,53.629167,,-113.59167,Akinsdale,,https://natural-resources.canada.ca/earth-sciences/geography/download-geographical-names-data/9245,,,Province,,
IAQFX_1,,Canada,Province - Alberta,,,54.9025,,-114.3605556,Akuinu River,,https://natural-resources.canada.ca/earth-sciences/geography/download-geographical-names-data/9245,,,Province,,
IAQFY_1,,Canada,Province - Alberta,,,52.7713889,,-110.4347222,Alba Lake,,https://natural-resources.canada.ca/earth-sciences/geography/download-geographical-names-data/9245,,,Province,,
IAQGE_1,,Canada,Province - Alberta,,,53.1669444,,-110.45,Albert Lake,,https://natural-resources.canada.ca/earth-sciences/geography/download-geographical-names-data/9245,,,Province,,
IAQGG_1,,Canada,Province - Alberta,,,51.0383333,,-113.9988889,Albert Park,,https://natural-resources.canada.ca/earth-sciences/geography/download-geographical-names-data/9245,,,Province,,
IAQFZ_1,,Canada,Province - Alberta,,,54.991667,,-114.376667,Alberta,,https://natural-resources.canada.ca/earth-sciences/geography/download-geographical-names-data/9245,,,Province,,
IASMB_1,,Canada,Province - Alberta,,,53.566667,,-113.48333,Alberta Avenue,,https://natural-resources.canada.ca/earth-sciences/geography/download-geographical-names-data/9245,,,Province,,
IAQGA_1,,Canada,Province - Alberta,,,53.6780555,,-114.3511111,Alberta Beach,,https://natural-resources.canada.ca/earth-sciences/geography/download-geographical-names-data/9245,,,Province,,
IATST_1,,Canada,Province - Alberta,,,53.566667,,-113.59722,Alberta Park Industrial,,https://natural-resources.canada.ca/earth-sciences/geography/download-geographical-names-data/9245,,,Province,,
IAQGD_1,,Canada,Province - Alberta,,,53.7994445,,-119.0525,Albertine Creek,,https://natural-resources.canada.ca/earth-sciences/geography/download-geographical-names-data/9245,,,Province,,
IAQGJ_1,,Canada,Province - Alberta,,,55.2658333,,-119.4972222,Albright,,https://natural-resources.canada.ca/earth-sciences/geography/download-geographical-names-data/9245,,,Province,,
IAQGK_1,,Canada,Province - Alberta,,,55.4869444,,-120.0011111,Albright Creek,,https://natural-resources.canada.ca/earth-sciences/geography/download-geographical-names-data/9245,,,Province,,
IAQGL_1,,Canada,Province - Alberta,,,55.4894444,,-119.8216667,Albright Lake,,https://natural-resources.canada.ca/earth-sciences/geography/download-geographical-names-data/9245,,,Province,,
IAQGM_1,,Canada,Province - Alberta,,,53.8930556,,-113.8380556,Alcomdale,,https://natural-resources.canada.ca/earth-sciences/geography/download-geographical-names-data/9245,,,Province,,
IAQGO_1,,Canada,Province - Alberta,,,52.6133333,,-118.2311111,Alcove Mountain,,https://natural-resources.canada.ca/earth-sciences/geography/download-geographical-names-data/9245,,,Province,,
IAQGN_1,,Canada,Province - Alberta,,,53.5119444,,-110.0666667,Alcurve,,https://natural-resources.canada.ca/earth-sciences/geography/download-geographical-names-data/9245,,,Province,,
IAQGP_1,,Canada,Province - Alberta,,,52.9330556,,-114.9569444,Alder Flats,,https://natural-resources.canada.ca/earth-sciences/geography/download-geographical-names-data/9245,,,Province,,
IATTI_1,,Canada,Province - Alberta,,,53.516667,,-113.50139,Aldergrove,,https://natural-resources.canada.ca/earth-sciences/geography/download-geographical-names-data/9245,,,Province,,
IAQGQ_1,,Canada,Province - Alberta,,,50.2830555,,-111.3452778,Alderson,,https://natural-resources.canada.ca/earth-sciences/geography/download-geographical-names-data/9245,,,Province,,
IABFL_1,,Canada,Province - Alberta,,,49.0447222,,-113.97,Alderson Creek,,https://natural-resources.canada.ca/earth-sciences/geography/download-geographical-names-data/9245,,,Province,,
IAQGR_1,,Canada,Province - Alberta,,,49.0297222,,-113.9761111,Alderson Lake,,https://natural-resources.canada.ca/earth-sciences/geography/download-geographical-names-data/9245,,,Province,,
IAQGT_1,,Canada,Province - Alberta,,,50.6761111,,-113.8788889,Aldersyde,,https://natural-resources.canada.ca/earth-sciences/geography/download-geographical-names-data/9245,,,Province,,
IAQGZ_1,,Canada,Province - Alberta,,,56.115,,-118.3425,Alex Lake,,https://natural-resources.canada.ca/earth-sciences/geography/download-geographical-names-data/9245,,,Province,,
IATLN_1,,Canada,Province - Alberta,,,53.8033333,,-113.9186111,Alexander,,https://natural-resources.canada.ca/earth-sciences/geography/download-geographical-names-data/9245,,,Province,,
IAUBO_1,,Canada,Province - Alberta,,,53.8113889,,-113.9602778,Alexander 134,,https://natural-resources.canada.ca/earth-sciences/geography/download-geographical-names-data/9245,,,Province,,
IZAAH_1,,Canada,Province - Alberta,,,54.28615,,-116.450092,Alexander 134a,,https://natural-resources.canada.ca/earth-sciences/geography/download-geographical-names-data/9245,,,Province,,
IZAAI_1,,Canada,Province - Alberta,,,54.3420082,,-114.8120155,Alexander 134b,,https://natural-resources.canada.ca/earth-sciences/geography/download-geographical-names-data/9245,,,Province,,
IAQMZ_1,,Canada,Province - Alberta,,,52.6975,,-111.0927778,Alexander Gate,,https://natural-resources.canada.ca/earth-sciences/geography/download-geographical-names-data/9245,,,Province,,
IAQGU_1,,Canada,Province - Alberta,,,57.1472223,,-111.6141667,Alexander Island,,https://natural-resources.canada.ca/earth-sciences/geography/download-geographical-names-data/9245,,,Province,,
IAQGV_1,,Canada,Province - Alberta,,,59.6236111,,-110.4802778,Alexander Lake,,https://natural-resources.canada.ca/earth-sciences/geography/download-geographical-names-data/9245,,,Province,,
IAQGW_1,,Canada,Province - Alberta,,,51.9852778,,-117.1483333,Alexandra Glaciers,,https://natural-resources.canada.ca/earth-sciences/geography/download-geographical-names-data/9245,,,Province,,
IABFM_1,,Canada,Province - Alberta,,,52.0677778,,-116.9297222,Alexandra River,,https://natural-resources.canada.ca/earth-sciences/geography/download-geographical-names-data/9245,,,Province,,
IATYW_1,,Canada,Province - Alberta,,,53.7488889,,-114.4863889,Alexis,,https://natural-resources.canada.ca/earth-sciences/geography/download-geographical-names-data/9245,,,Province,,
IAUBP_1,,Canada,Province - Alberta,,,53.7333334,,-114.4833333,Alexis 133,,https://natural-resources.canada.ca/earth-sciences/geography/download-geographical-names-data/9245,,,Province,,
IAUFN_1,,Canada,Province - Alberta,,,52.8541667,,-116.9722222,Alexis Cardinal River 234,,https://natural-resources.canada.ca/earth-sciences/geography/download-geographical-names-data/9245,,,Province,,
IAUFM_1,,Canada,Province - Alberta,,,52.9236111,,-116.5494444,Alexis Elk River 233,,https://natural-resources.canada.ca/earth-sciences/geography/download-geographical-names-data/9245,,,Province,,
IAUBC_1,,Canada,Province - Alberta,,,54.225,,-115.8169,Alexis Whitecourt 232,,https://natural-resources.canada.ca/earth-sciences/geography/download-geographical-names-data/9245,,,Province,,
IABFG_1,,Canada,Province - Alberta,,,52.4752778,,-115.7830556,Alexo,,https://natural-resources.canada.ca/earth-sciences/geography/download-geographical-names-data/9245,,,Province,,
IABFH_1,,Canada,Province - Alberta,,,52.0847222,,-114.8805556,Alford Creek,,https://natural-resources.canada.ca/earth-sciences/geography/download-geographical-names-data/9245,,,Province,,
IABFI_1,,Canada,Province - Alberta,,,52.066667,,-115.08333,Alford Lake,,https://natural-resources.canada.ca/earth-sciences/geography/download-geographical-names-data/9245,,,Province,,
IABFJ_1,,Canada,Province - Alberta,,,51.4733333,,-115.9363889,Alfred Lake,,https://natural-resources.canada.ca/earth-sciences/geography/download-geographical-names-data/9245,,,Province,,
IAECW_1,,Canada,Province - Alberta,,,56.3116667,,-112.2922222,Algar Lake,,https://natural-resources.canada.ca/earth-sciences/geography/download-geographical-names-data/9245,,,Province,,
IAECX_1,,Canada,Province - Alberta,,,56.5486111,,-112.1941667,Algar River,,https://natural-resources.canada.ca/earth-sciences/geography/download-geographical-names-data/9245,,,Province,,
IABFN_1,,Canada,Province - Alberta,,,52.3430556,,-114.6725,Alhambra,,https://natural-resources.canada.ca/earth-sciences/geography/download-geographical-names-data/9245,,,Province,,
IABFO_1,,Canada,Province - Alberta,,,58.2980556,,-113.2086111,Alice Creek,,https://natural-resources.canada.ca/earth-sciences/geography/download-geographical-names-data/9245,,,Province,,
IABFQ_1,,Canada,Province - Alberta,,,53.2372223,,-111.5591667,Alice Lake,,https://natural-resources.canada.ca/earth-sciences/geography/download-geographical-names-data/9245,,,Province,,
IABFR_1,,Canada,Province - Alberta,,,52.3999999,,-113.1797221,Alix,,https://natural-resources.canada.ca/earth-sciences/geography/download-geographical-names-data/9245,,,Province,,
IABFS_1,,Canada,Province - Alberta,,,52.3941667,,-113.1969444,Alix Lake,,https://natural-resources.canada.ca/earth-sciences/geography/download-geographical-names-data/9245,,,Province,,
IABFT_1,,Canada,Province - Alberta,,,52.37,,-113.21,Alix South Junction,,https://natural-resources.canada.ca/earth-sciences/geography/download-geographical-names-data/9245,,,Province,,
IABFU_1,,Canada,Province - Alberta,,,50.8638889,,-110.4966667,Alkali Creek,,https://natural-resources.canada.ca/earth-sciences/geography/download-geographical-names-data/9245,,,Province,,
IABFV_1,,Canada,Province - Alberta,,,51.016667,,-112.18333,Alkali Lake,,https://natural-resources.canada.ca/earth-sciences/geography/download-geographical-names-data/9245,,,Province,,
IABFY_1,,Canada,Province - Alberta,,,54.9386111,,-116.0619444,Allan Lake,,https://natural-resources.canada.ca/earth-sciences/geography/download-geographical-names-data/9245,,,Province,,
IABGB_1,,Canada,Province - Alberta,,,54.9069445,,-114.775,Allan River,,https://natural-resources.canada.ca/earth-sciences/geography/download-geographical-names-data/9245,,,Province,,
IABGC_1,,Canada,Province - Alberta,,,54.1855556,,-111.4530556,Allday Lake,,https://natural-resources.canada.ca/earth-sciences/geography/download-geographical-names-data/9245,,,Province,,
IABGD_1,,Canada,Province - Alberta,,,57.0366666,,-118.6041667,Alleman Creek,,https://natural-resources.canada.ca/earth-sciences/geography/download-geographical-names-data/9245,,,Province,,
IAQMM_1,,Canada,Province - Alberta,,,50.9011111,,-114.6863889,Allen Bill Pond,,https://natural-resources.canada.ca/earth-sciences/geography/download-geographical-names-data/9245,,,Province,,
IABGH_1,,Canada,Province - Alberta,,,53.8966666,,-119.0652778,Allen Creek,,https://natural-resources.canada.ca/earth-sciences/geography/download-geographical-names-data/9245,,,Province,,
IABGE_1,,Canada,Province - Alberta,,,50.9205556,,-115.5583333,Allenby Creek,,https://natural-resources.canada.ca/earth-sciences/geography/download-geographical-names-data/9245,,,Province,,
IABGG_1,,Canada,Province - Alberta,,,50.9647222,,-115.5694444,Allenby Pass,,https://natural-resources.canada.ca/earth-sciences/geography/download-geographical-names-data/9245,,,Province,,
IAECZ_1,,Canada,Province - Alberta,,,53.508333,,-113.50139,Allendale,,https://natural-resources.canada.ca/earth-sciences/geography/download-geographical-names-data/9245,,,Province,,
IABGK_1,,Canada,Province - Alberta,,,52.4344445,,-111.7852778,Alliance,,https://natural-resources.canada.ca/earth-sciences/geography/download-geographical-names-data/9245,,,Province,,
IABGL_1,,Canada,Province - Alberta,,,51.7027778,,-113.5952778,Allingham,,https://natural-resources.canada.ca/earth-sciences/geography/download-geographical-names-data/9245,,,Province,,
IAUEV_1,,Canada,Province - Alberta,,,58.7744445,,-111.0366667,Allison Bay 219,,https://natural-resources.canada.ca/earth-sciences/geography/download-geographical-names-data/9245,,,Province,,
IABGM_1,,Canada,Province - Alberta,,,49.625,,-114.5897222,Allison Creek,,https://natural-resources.canada.ca/earth-sciences/geography/download-geographical-names-data/9245,,,Province,,
IABGN_1,,Canada,Province - Alberta,,,49.7433333,,-114.6463889,Allison Peak,,https://natural-resources.canada.ca/earth-sciences/geography/download-geographical-names-data/9245,,,Province,,
IABGO_1,,Canada,Province - Alberta,,,50.7438889,,-114.6894444,Allsmoke Mountain,,https://natural-resources.canada.ca/earth-sciences/geography/download-geographical-names-data/9245,,,Province,,
IABGP_1,,Canada,Province - Alberta,,,52.2902778,,-116.3747222,Allstones Creek,,https://natural-resources.canada.ca/earth-sciences/geography/download-geographical-names-data/9245,,,Province,,
IARAP_1,,Canada,Province - Alberta,,,52.3025,,-116.4186111,Allstones Lake,,https://natural-resources.canada.ca/earth-sciences/geography/download-geographical-names-data/9245,,,Province,,
IABGQ_1,,Canada,Province - Alberta,,,53.7536111,,-110.4416667,Alma Creek,,https://natural-resources.canada.ca/earth-sciences/geography/download-geographical-names-data/9245,,,Province,,
IABGR_1,,Canada,Province - Alberta,,,53.7808334,,-110.3966667,Alma Lake,,https://natural-resources.canada.ca/earth-sciences/geography/download-geographical-names-data/9245,,,Province,,
IABGS_1,,Canada,Province - Alberta,,,51.6541667,,-111.7313889,Alness,,https://natural-resources.canada.ca/earth-sciences/geography/download-geographical-names-data/9245,,,Province,,
IABGU_1,,Canada,Province - Alberta,,,52.4875,,-118.0069444,Alnus Peak,,https://natural-resources.canada.ca/earth-sciences/geography/download-geographical-names-data/9245,,,Province,,
IABGV_1,,Canada,Province - Alberta,,,54.4252777,,-112.9252778,Alpen,,https://natural-resources.canada.ca/earth-sciences/geography/download-geographical-names-data/9245,,,Province,,
IABGW_1,,Canada,Province - Alberta,,,54.4263889,,-112.9555556,Alpen Siding,,https://natural-resources.canada.ca/earth-sciences/geography/download-geographical-names-data/9245,,,Province,,
IABGX_1,,Canada,Province - Alberta,,,53.7727778,,-115.2538889,Alpha Lake,,https://natural-resources.canada.ca/earth-sciences/geography/download-geographical-names-data/9245,,,Province,,
IABGZ_1,,Canada,Province - Alberta,,,51.8283333,,-116.8936111,Alpland Creek,,https://natural-resources.canada.ca/earth-sciences/geography/download-geographical-names-data/9245,,,Province,,
IABHA_1,,Canada,Province - Alberta,,,53.1916667,,-114.4638889,Alsike,,https://natural-resources.canada.ca/earth-sciences/geography/download-geographical-names-data/9245,,,Province,,
IABHB_1,,Canada,Province - Alberta,,,51.016667,,-114.1,Altadore,,https://natural-resources.canada.ca/earth-sciences/geography/download-geographical-names-data/9245,,,Province,,
IABHC_1,,Canada,Province - Alberta,,,51.9186111,,-110.1622222,Altario,,https://natural-resources.canada.ca/earth-sciences/geography/download-geographical-names-data/9245,,,Province,,
IABHE_1,,Canada,Province - Alberta,,,51.2575,,-115.9352778,Altrude Creek,,https://natural-resources.canada.ca/earth-sciences/geography/download-geographical-names-data/9245,,,Province,,
IABHF_1,,Canada,Province - Alberta,,,51.2305556,,-116.0475,Altrude Lakes,,https://natural-resources.canada.ca/earth-sciences/geography/download-geographical-names-data/9245,,,Province,,
IABHG_1,,Canada,Province - Alberta,,,52.6783333,,-110.195,Alvena Lake,,https://natural-resources.canada.ca/earth-sciences/geography/download-geographical-names-data/9245,,,Province,,
IABHH_1,,Canada,Province - Alberta,,,55.3711111,,-112.9066667,Amadou Lake,,https://natural-resources.canada.ca/earth-sciences/geography/download-geographical-names-data/9245,,,Province,,
IABHJ_1,,Canada,Province - Alberta,,,52.8116667,,-117.9052778,Amber Mountain,,https://natural-resources.canada.ca/earth-sciences/geography/download-geographical-names-data/9245,,,Province,,
IAEDA_1,,Canada,Province - Alberta,,,58.85,,-118.915,Amber River,,https://natural-resources.canada.ca/earth-sciences/geography/download-geographical-names-data/9245,,,Province,,
IAUCC_1,,Canada,Province - Alberta,,,58.8922222,,-118.9461111,Amber River 211,,https://natural-resources.canada.ca/earth-sciences/geography/download-geographical-names-data/9245,,,Province,,
IABHK_1,,Canada,Province - Alberta,,,54.7327778,,-112.9294444,Amber Valley,,https://natural-resources.canada.ca/earth-sciences/geography/download-geographical-names-data/9245,,,Province,,
IABHL_1,,Canada,Province - Alberta,,,53.9302777,,-119.2547222,Ambler Mountain,,https://natural-resources.canada.ca/earth-sciences/geography/download-geographical-names-data/9245,,,Province,,
IABHM_1,,Canada,Province - Alberta,,,53.8913889,,-113.0522222,Amelia,,https://natural-resources.canada.ca/earth-sciences/geography/download-geographical-names-data/9245,,,Province,,
IABHO_1,,Canada,Province - Alberta,,,55.0811111,,-112.4972222,Amesbury,,https://natural-resources.canada.ca/earth-sciences/geography/download-geographical-names-data/9245,,,Province,,
IABHP_1,,Canada,Province - Alberta,,,52.7,,-118.2769444,Amethyst Lakes,,https://natural-resources.canada.ca/earth-sciences/geography/download-geographical-names-data/9245,,,Province,,
IABHQ_1,,Canada,Province - Alberta,,,52.5655555,,-111.0572222,Amisk,,https://natural-resources.canada.ca/earth-sciences/geography/download-geographical-names-data/9245,,,Province,,
IABHR_1,,Canada,Province - Alberta,,,53.365,,-112.5380556,Amisk Creek,,https://natural-resources.canada.ca/earth-sciences/geography/download-geographical-names-data/9245,,,Province,,
IAIYZ_1,,Canada,Province - Alberta,,,54.5936111,,-112.6330556,Amisk Lake,,https://natural-resources.canada.ca/earth-sciences/geography/download-geographical-names-data/9245,,,Province,,
IABHS_1,,Canada,Province - Alberta,,,54.4644444,,-111.7711111,Amisk River,,https://natural-resources.canada.ca/earth-sciences/geography/download-geographical-names-data/9245,,,Province,,
IABHT_1,,Canada,Province - Alberta,,,53.0372223,,-117.8252778,Ammonite Creek,,https://natural-resources.canada.ca/earth-sciences/geography/download-geographical-names-data/9245,,,Province,,
IAEDB_1,,Canada,Province - Alberta,,,54.4211111,,-118.3861111,Amundson,,https://natural-resources.canada.ca/earth-sciences/geography/download-geographical-names-data/9245,,,Province,,
IABSU_1,,Canada,Province - Alberta,,,54.3566667,,-113.6269444,Analta,,https://natural-resources.canada.ca/earth-sciences/geography/download-geographical-names-data/9245,,,Province,,
IABSV_1,,Canada,Province - Alberta,,,50.7233333,,-113.0319444,Anastasia,,https://natural-resources.canada.ca/earth-sciences/geography/download-geographical-names-data/9245,,,Province,,
IABSY_1,,Canada,Province - Alberta,,,52.4502778,,-115.5869444,Ancona,,https://natural-resources.canada.ca/earth-sciences/geography/download-geographical-names-data/9245,,,Province,,
IABTA_1,,Canada,Province - Alberta,,,52.7683333,,-114.3102778,Anderson Creek,,https://natural-resources.canada.ca/earth-sciences/geography/download-geographical-names-data/9245,,,Province,,
IABTB_1,,Canada,Province - Alberta,,,55.3386112,,-119.2441667,Anderson Lake,,https://natural-resources.canada.ca/earth-sciences/geography/download-geographical-names-data/9245,,,Province,,
IABTD_1,,Canada,Province - Alberta,,,49.1344444,,-114.0786111,Anderson Peak,,https://natural-resources.canada.ca/earth-sciences/geography/download-geographical-names-data/9245,,,Province,,
IABTE_1,,Canada,Province - Alberta,,,53.8783333,,-112.3352778,Andrew,,https://natural-resources.canada.ca/earth-sciences/geography/download-geographical-names-data/9245,,,Province,,
IABTF_1,,Canada,Province - Alberta,,,59.8933333,,-110.1147222,Andrew Lake,,https://natural-resources.canada.ca/earth-sciences/geography/download-geographical-names-data/9245,,,Province,,
IABTH_1,,Canada,Province - Alberta,,,49.5655556,,-114.5886111,Andy Good Peak,,https://natural-resources.canada.ca/earth-sciences/geography/download-geographical-names-data/9245,,,Province,,
IABTI_1,,Canada,Province - Alberta,,,52.6766666,,-118.0622222,Angel Glacier,,https://natural-resources.canada.ca/earth-sciences/geography/download-geographical-names-data/9245,,,Province,,
IABTK_1,,Canada,Province - Alberta,,,53.74,,-110.9680556,Angle Lake,,https://natural-resources.canada.ca/earth-sciences/geography/download-geographical-names-data/9245,,,Province,,
IABTL_1,,Canada,Province - Alberta,,,52.61,,-118.2119444,Angle Peak,,https://natural-resources.canada.ca/earth-sciences/geography/download-geographical-names-data/9245,,,Province,,
IABTM_1,,Canada,Province - Alberta,,,54.1991667,,-110.3280556,Angling Lake,,https://natural-resources.canada.ca/earth-sciences/geography/download-geographical-names-data/9245,,,Province,,
IABTQ_1,,Canada,Province - Alberta,,,52.7302778,,-112.33,Ankerton,,https://natural-resources.canada.ca/earth-sciences/geography/download-geographical-names-data/9245,,,Province,,
IABTS_1,,Canada,Province - Alberta,,,54.7405556,,-115.2316667,Anna Lake,,https://natural-resources.canada.ca/earth-sciences/geography/download-geographical-names-data/9245,,,Province,,
IABTR_1,,Canada,Province - Alberta,,,53.5319445,,-116.7208333,Annabel Lake,,https://natural-resources.canada.ca/earth-sciences/geography/download-geographical-names-data/9245,,,Province,,
IAIZW_1,,Canada,Province - Alberta,,,52.9016667,,-118.0475,Annette Lake,,https://natural-resources.canada.ca/earth-sciences/geography/download-geographical-names-data/9245,,,Province,,
IABTX_1,,Canada,Province - Alberta,,,53.5572222,,-116.5255556,Ansell,,https://natural-resources.canada.ca/earth-sciences/geography/download-geographical-names-data/9245,,,Province,,
IABTY_1,,Canada,Province - Alberta,,,54.5055556,,-113.1019444,Ansell Lake,,https://natural-resources.canada.ca/earth-sciences/geography/download-geographical-names-data/9245,,,Province,,
IABUA_1,,Canada,Province - Alberta,,,53.89,,-115.3888889,Anselmo,,https://natural-resources.canada.ca/earth-sciences/geography/download-geographical-names-data/9245,,,Province,,
IABUC_1,,Canada,Province - Alberta,,,54.7688889,,-117.6869444,Ante Creek,,https://natural-resources.canada.ca/earth-sciences/geography/download-geographical-names-data/9245,,,Province,,
IAALC_1,,Canada,Province - Alberta,,,49.7702778,,-114.2088889,Antelope Butte,,https://natural-resources.canada.ca/earth-sciences/geography/download-geographical-names-data/9245,,,Province,,
IARAQ_1,,Canada,Province - Alberta,,,51.7497222,,-111.9283333,Antelope Hills,,https://natural-resources.canada.ca/earth-sciences/geography/download-geographical-names-data/9245,,,Province,,
IABUD_1,,Canada,Province - Alberta,,,51.6694444,,-111.2491667,Antelope Lake,,https://natural-resources.canada.ca/earth-sciences/geography/download-geographical-names-data/9245,,,Province,,
IABUE_1,,Canada,Province - Alberta,,,51.2863889,,-112.2397222,Antelope Lakes,,https://natural-resources.canada.ca/earth-sciences/geography/download-geographical-names-data/9245,,,Province,,
IABUF_1,,Canada,Province - Alberta,,,53.6019444,,-118.9438889,Anthony Creek,,https://natural-resources.canada.ca/earth-sciences/geography/download-geographical-names-data/9245,,,Province,,
IABUG_1,,Canada,Province - Alberta,,,51.4627778,,-116.0275,Anthozoan Mountain,,https://natural-resources.canada.ca/earth-sciences/geography/download-geographical-names-data/9245,,,Province,,
IABUH_1,,Canada,Province - Alberta,,,51.1925,,-115.4938889,Anthracite,,https://natural-resources.canada.ca/earth-sciences/geography/download-geographical-names-data/9245,,,Province,,
IABUI_1,,Canada,Province - Alberta,,,53.2122222,,-117.3280556,Antler Creek,,https://natural-resources.canada.ca/earth-sciences/geography/download-geographical-names-data/9245,,,Province,,
IABUJ_1,,Canada,Province - Alberta,,,52.0630556,,-113.8933333,Antler Hill,,https://natural-resources.canada.ca/earth-sciences/geography/download-geographical-names-data/9245,,,Province,,
IASVM_1,,Canada,Province - Alberta,,,57.5488889,,-113.3777778,Antler Lake,,https://natural-resources.canada.ca/earth-sciences/geography/download-geographical-names-data/9245,,,Province,,
IASZX_1,,Canada,Province - Alberta,,,52.7505556,,-117.8172222,Antler Lakes,,https://natural-resources.canada.ca/earth-sciences/geography/download-geographical-names-data/9245,,,Province,,
IABUL_1,,Canada,Province - Alberta,,,52.7588889,,-117.8458333,Antler Mountain,,https://natural-resources.canada.ca/earth-sciences/geography/download-geographical-names-data/9245,,,Province,,
IABUM_1,,Canada,Province - Alberta,,,54.7672223,,-112.0877778,Antoine Lake,,https://natural-resources.canada.ca/earth-sciences/geography/download-geographical-names-data/9245,,,Province,,
IABUO_1,,Canada,Province - Alberta,,,54.1530556,,-113.3888889,Anton Lake,,https://natural-resources.canada.ca/earth-sciences/geography/download-geographical-names-data/9245,,,Province,,
IABUN_1,,Canada,Province - Alberta,,,49.8211111,,-111.7941667,Antonio,,https://natural-resources.canada.ca/earth-sciences/geography/download-geographical-names-data/9245,,,Province,,
IABUP_1,,Canada,Province - Alberta,,,53.0766667,,-114.5136111,Antross,,https://natural-resources.canada.ca/earth-sciences/geography/download-geographical-names-data/9245,,,Province,,
IBAJY_1,,Canada,Province - Alberta,,,51.1361111,,-115.3377778,Anû Kathâ Îpa (Bald Eagle Peak) ,,https://natural-resources.canada.ca/earth-sciences/geography/download-geographical-names-data/9245,,,Province,,
IABUQ_1,,Canada,Province - Alberta,,,56.4486111,,-111.0352778,Anzac,,https://natural-resources.canada.ca/earth-sciences/geography/download-geographical-names-data/9245,,,Province,,
IABUR_1,,Canada,Province - Alberta,,,53.6436111,,-117.2616667,Apetowun Creek,,https://natural-resources.canada.ca/earth-sciences/geography/download-geographical-names-data/9245,,,Province,,
IABUS_1,,Canada,Province - Alberta,,,52.2227778,,-117.8133333,Apex Mountain,,https://natural-resources.canada.ca/earth-sciences/geography/download-geographical-names-data/9245,,,Province,,
IABUT_1,,Canada,Province - Alberta,,,51.3675,,-115.4583333,Apparition Mountain,,https://natural-resources.canada.ca/earth-sciences/geography/download-geographical-names-data/9245,,,Province,,
IATLV_1,,Canada,Province - Alberta,,,51.043056,,-113.925,Applewood Park,,https://natural-resources.canada.ca/earth-sciences/geography/download-geographical-names-data/9245,,,Province,,
IARAR_1,,Canada,Province - Alberta,,,51.4722222,,-113.0286111,Appleyard Coulee,,https://natural-resources.canada.ca/earth-sciences/geography/download-geographical-names-data/9245,,,Province,,
IABUU_1,,Canada,Province - Alberta,,,52.7366667,,-118.1094444,Aquila Mountain,,https://natural-resources.canada.ca/earth-sciences/geography/download-geographical-names-data/9245,,,Province,,
IATLW_1,,Canada,Province - Alberta,,,51.134722,,-114.20278,Arbour Lake,,https://natural-resources.canada.ca/earth-sciences/geography/download-geographical-names-data/9245,,,Province,,
IABUV_1,,Canada,Province - Alberta,,,55.4005556,,-116.1280556,Arcadia,,https://natural-resources.canada.ca/earth-sciences/geography/download-geographical-names-data/9245,,,Province,,
IABUW_1,,Canada,Province - Alberta,,,55.4305556,,-116.0777778,Arcadia Creek,,https://natural-resources.canada.ca/earth-sciences/geography/download-geographical-names-data/9245,,,Province,,
IABUX_1,,Canada,Province - Alberta,,,53.1061111,,-110.7875,Arcand Lake,,https://natural-resources.canada.ca/earth-sciences/geography/download-geographical-names-data/9245,,,Province,,
IACIH_1,,Canada,Province - Alberta,,,59.8705556,,-110.63,Arch Lake,,https://natural-resources.canada.ca/earth-sciences/geography/download-geographical-names-data/9245,,,Province,,
IABUY_1,,Canada,Province - Alberta,,,58.0791667,,-110.6208333,Archer Creek,,https://natural-resources.canada.ca/earth-sciences/geography/download-geographical-names-data/9245,,,Province,,
IABUZ_1,,Canada,Province - Alberta,,,53.6736111,,-112.8358333,Archer Island,,https://natural-resources.canada.ca/earth-sciences/geography/download-geographical-names-data/9245,,,Province,,
IABVA_1,,Canada,Province - Alberta,,,58.1130556,,-110.3405556,Archer Lake,,https://natural-resources.canada.ca/earth-sciences/geography/download-geographical-names-data/9245,,,Province,,
IABVB_1,,Canada,Province - Alberta,,,52.7444445,,-111.1019444,Archie Hill,,https://natural-resources.canada.ca/earth-sciences/geography/download-geographical-names-data/9245,,,Province,,
IABVD_1,,Canada,Province - Alberta,,,54.6877777,,-115.0775,Archie Lake,,https://natural-resources.canada.ca/earth-sciences/geography/download-geographical-names-data/9245,,,Province,,
IACIJ_1,,Canada,Province - Alberta,,,51.9933333,,-116.8147222,Arctomys Creek,,https://natural-resources.canada.ca/earth-sciences/geography/download-geographical-names-data/9245,,,Province,,
IACIK_1,,Canada,Province - Alberta,,,51.9333333,,-116.9833333,Arctomys Peak,,https://natural-resources.canada.ca/earth-sciences/geography/download-geographical-names-data/9245,,,Province,,
IACIL_1,,Canada,Province - Alberta,,,53.4486111,,-118.66,Arcturus Peak,,https://natural-resources.canada.ca/earth-sciences/geography/download-geographical-names-data/9245,,,Province,,
IATLA_1,,Canada,Province - Alberta,,,52.0413889,,-116.3588889,Ardennes Peak,,https://natural-resources.canada.ca/earth-sciences/geography/download-geographical-names-data/9245,,,Province,,
IACIM_1,,Canada,Province - Alberta,,,51.1444444,,-113.4236111,Ardenode,,https://natural-resources.canada.ca/earth-sciences/geography/download-geographical-names-data/9245,,,Province,,
IADNH_1,,Canada,Province - Alberta,,,58.8963889,,-111.4658333,Ardens Slough,,https://natural-resources.canada.ca/earth-sciences/geography/download-geographical-names-data/9245,,,Province,,
IACIN_1,,Canada,Province - Alberta,,,49.545,,-113.4586111,Ardenville,,https://natural-resources.canada.ca/earth-sciences/geography/download-geographical-names-data/9245,,,Province,,
IACIO_1,,Canada,Province - Alberta,,,52.2613889,,-113.2275,Ardley,,https://natural-resources.canada.ca/earth-sciences/geography/download-geographical-names-data/9245,,,Province,,
IACIP_1,,Canada,Province - Alberta,,,54.3319444,,-110.4827778,Ardmore,,https://natural-resources.canada.ca/earth-sciences/geography/download-geographical-names-data/9245,,,Province,,
IACIQ_1,,Canada,Province - Alberta,,,53.5522222,,-113.1438889,Ardrossan,,https://natural-resources.canada.ca/earth-sciences/geography/download-geographical-names-data/9245,,,Province,,
IACIR_1,,Canada,Province - Alberta,,,52.4747222,,-116.9458333,Arête Mountain,,https://natural-resources.canada.ca/earth-sciences/geography/download-geographical-names-data/9245,,,Province,,
IACIS_1,,Canada,Province - Alberta,,,53.0536111,,-114.0163889,Argentia Beach,,https://natural-resources.canada.ca/earth-sciences/geography/download-geographical-names-data/9245,,,Province,,
IATQU_1,,Canada,Province - Alberta,,,53.502778,,-113.45972,Argyll,,https://natural-resources.canada.ca/earth-sciences/geography/download-geographical-names-data/9245,,,Province,,
IACIV_1,,Canada,Province - Alberta,,,51.7872222,,-116.6447222,Aries Peak,,https://natural-resources.canada.ca/earth-sciences/geography/download-geographical-names-data/9245,,,Province,,
IACJA_1,,Canada,Province - Alberta,,,52.7463889,,-110.5994444,Arm Lake,,https://natural-resources.canada.ca/earth-sciences/geography/download-geographical-names-data/9245,,,Province,,
IACIW_1,,Canada,Province - Alberta,,,50.4138889,,-112.7536111,Armada,,https://natural-resources.canada.ca/earth-sciences/geography/download-geographical-names-data/9245,,,Province,,
IACIY_1,,Canada,Province - Alberta,,,53.1225,,-112.9488889,Armena,,https://natural-resources.canada.ca/earth-sciences/geography/download-geographical-names-data/9245,,,Province,,
IATBL_1,,Canada,Province - Alberta,,,51.2833333,,-110.4116667,Armitage's Lake,,https://natural-resources.canada.ca/earth-sciences/geography/download-geographical-names-data/9245,,,Province,,
IAQNA_1,,Canada,Province - Alberta,,,52.825,,-111.0925,Armstrong Hill,,https://natural-resources.canada.ca/earth-sciences/geography/download-geographical-names-data/9245,,,Province,,
IACJB_1,,Canada,Province - Alberta,,,53.566667,,-113.61667,Armstrong Industrial,,https://natural-resources.canada.ca/earth-sciences/geography/download-geographical-names-data/9245,,,Province,,
IADNI_1,,Canada,Province - Alberta,,,54.3894444,,-113.6438889,Armstrong Lake,,https://natural-resources.canada.ca/earth-sciences/geography/download-geographical-names-data/9245,,,Province,,
IAQNB_1,,Canada,Province - Alberta,,,52.8236111,,-111.0583333,Armstrong Spring,,https://natural-resources.canada.ca/earth-sciences/geography/download-geographical-names-data/9245,,,Province,,
IACJD_1,,Canada,Province - Alberta,,,53.705,,-114.7361111,Arnault Lake,,https://natural-resources.canada.ca/earth-sciences/geography/download-geographical-names-data/9245,,,Province,,
IACJE_1,,Canada,Province - Alberta,,,51.1866667,,-110.075,Arneson,,https://natural-resources.canada.ca/earth-sciences/geography/download-geographical-names-data/9245,,,Province,,
IADNJ_1,,Canada,Province - Alberta,,,51.2213889,,-115.9969444,Arnica Lake,,https://natural-resources.canada.ca/earth-sciences/geography/download-geographical-names-data/9245,,,Province,,
IACJF_1,,Canada,Province - Alberta,,,52.7805556,,-118.2583333,Arris Mountain,,https://natural-resources.canada.ca/earth-sciences/geography/download-geographical-names-data/9245,,,Province,,
IACJG_1,,Canada,Province - Alberta,,,59.6855556,,-113.6294444,Arrowhead Lake,,https://natural-resources.canada.ca/earth-sciences/geography/download-geographical-names-data/9245,,,Province,,
IADNK_1,,Canada,Province - Alberta,,,49.9355556,,-112.5091667,Arrowsmith Coulee,,https://natural-resources.canada.ca/earth-sciences/geography/download-geographical-names-data/9245,,,Province,,
IACJI_1,,Canada,Province - Alberta,,,50.739444400000004,,-113.1483332,Arrowwood,,https://natural-resources.canada.ca/earth-sciences/geography/download-geographical-names-data/9245,,,Province,,
IACJK_1,,Canada,Province - Alberta,,,53.7647222,,-114.6488889,Arthur Lake,,https://natural-resources.canada.ca/earth-sciences/geography/download-geographical-names-data/9245,,,Province,,
IACJN_1,,Canada,Province - Alberta,,,52.7558333,,-111.0933333,Arty Hill,,https://natural-resources.canada.ca/earth-sciences/geography/download-geographical-names-data/9245,,,Province,,
IACJO_1,,Canada,Province - Alberta,,,53.9916666,,-114.0025,Arvilla,,https://natural-resources.canada.ca/earth-sciences/geography/download-geographical-names-data/9245,,,Province,,
IACJR_1,,Canada,Province - Alberta,,,52.7511111,,-116.5352778,Ashburner Creek,,https://natural-resources.canada.ca/earth-sciences/geography/download-geographical-names-data/9245,,,Province,,
IACJS_1,,Canada,Province - Alberta,,,53.2044444,,-117.8433333,Ashlar Creek,,https://natural-resources.canada.ca/earth-sciences/geography/download-geographical-names-data/9245,,,Province,,
IACJT_1,,Canada,Province - Alberta,,,53.1727777,,-117.805,Ashlar Ridge,,https://natural-resources.canada.ca/earth-sciences/geography/download-geographical-names-data/9245,,,Province,,
IACJU_1,,Canada,Province - Alberta,,,54.1291666,,-111.5680556,Ashmont,,https://natural-resources.canada.ca/earth-sciences/geography/download-geographical-names-data/9245,,,Province,,
IACJV_1,,Canada,Province - Alberta,,,59.8425,,-110.4069444,Ashton Lake,,https://natural-resources.canada.ca/earth-sciences/geography/download-geographical-names-data/9245,,,Province,,
IACJP_1,,Canada,Province - Alberta,,,52.4613889,,-113.9386111,Aspen Beach,,https://natural-resources.canada.ca/earth-sciences/geography/download-geographical-names-data/9245,,,Province,,
NPNHS_00029,,Canada,Lieu historique national du Canada Alexander-Graham-Bell,,,,,,Alexander Graham Bell National Historic Site ,,https://www.lunaris.ca/catalog/dd7e21b7-76e2-54c0-a7a6-497346d4f0bc?locale=en&q=National+Parks+and+National+Historic+Sites,,,National Historic Site of Canada,,
IACJX_1,,Canada,Province - Alberta,,,52.4622222,,-113.9766667,Aspen Beach Provincial Park,,https://natural-resources.canada.ca/earth-sciences/geography/download-geographical-names-data/9245,,,Province,,
IATPB_1,,Canada,Province - Alberta,,,53.475,,-113.54444,Aspen Gardens,,https://natural-resources.canada.ca/earth-sciences/geography/download-geographical-names-data/9245,,,Province,,
IACJQ_1,,Canada,Province - Alberta,,,57.5383333,,-111.6311111,Asphalt Creek,,https://natural-resources.canada.ca/earth-sciences/geography/download-geographical-names-data/9245,,,Province,,
IADNL_1,,Canada,Province - Alberta,,,54.9258333,,-117.2186111,Asplund Creek,,https://natural-resources.canada.ca/earth-sciences/geography/download-geographical-names-data/9245,,,Province,,
IACKA_1,,Canada,Province - Alberta,,,55.3744445,,-115.1911111,Assineau,,https://natural-resources.canada.ca/earth-sciences/geography/download-geographical-names-data/9245,,,Province,,
IACKB_1,,Canada,Province - Alberta,,,55.39,,-115.1961111,Assineau River,,https://natural-resources.canada.ca/earth-sciences/geography/download-geographical-names-data/9245,,,Province,,
IAUDH_1,,Canada,Province - Alberta,,,55.3872222,,-115.1891667,Assineau River 150F,,https://natural-resources.canada.ca/earth-sciences/geography/download-geographical-names-data/9245,,,Province,,
IACKD_1,,Canada,Province - Alberta,,,50.9263889,,-115.6088889,Assiniboine Pass,,https://natural-resources.canada.ca/earth-sciences/geography/download-geographical-names-data/9245,,,Province,,
IACKE_1,,Canada,Province - Alberta,,,51.1805556,,-115.1261111,Association Peak,,https://natural-resources.canada.ca/earth-sciences/geography/download-geographical-names-data/9245,,,Province,,
IAAQB_1,,Canada,Province - Alberta,,,58.6994444,,-118.6872222,Assumption,,https://natural-resources.canada.ca/earth-sciences/geography/download-geographical-names-data/9245,,,Province,,
IACKF_1,,Canada,Province - Alberta,,,50.5863889,,-115.2016667,Aster Creek,,https://natural-resources.canada.ca/earth-sciences/geography/download-geographical-names-data/9245,,,Province,,
IACKG_1,,Canada,Province - Alberta,,,50.5777777,,-115.2108333,Aster Lake,,https://natural-resources.canada.ca/earth-sciences/geography/download-geographical-names-data/9245,,,Province,,
IACKI_1,,Canada,Province - Alberta,,,52.7075,,-118.1425,Astoria Pass,,https://natural-resources.canada.ca/earth-sciences/geography/download-geographical-names-data/9245,,,Province,,
IACKJ_1,,Canada,Province - Alberta,,,52.7986111,,-118.02,Astoria River,,https://natural-resources.canada.ca/earth-sciences/geography/download-geographical-names-data/9245,,,Province,,
IACKK_1,,Canada,Province - Alberta,,,53.8530555,,-112.9413889,Astotin Creek,,https://natural-resources.canada.ca/earth-sciences/geography/download-geographical-names-data/9245,,,Province,,
IACKL_1,,Canada,Province - Alberta,,,53.6819444,,-112.8533333,Astotin Lake,,https://natural-resources.canada.ca/earth-sciences/geography/download-geographical-names-data/9245,,,Province,,
IARFF_1,,Canada,Province - Alberta,,,54.7166666,,-113.2841667,Athabasca,,https://natural-resources.canada.ca/earth-sciences/geography/download-geographical-names-data/9245,,,Province,,
IACKN_1,,Canada,Province - Alberta,,,52.6644444,,-117.8833333,Athabasca Falls,,https://natural-resources.canada.ca/earth-sciences/geography/download-geographical-names-data/9245,,,Province,,
IACKO_1,,Canada,Province - Alberta,,,52.1986111,,-117.2436111,Athabasca Glacier,,https://natural-resources.canada.ca/earth-sciences/geography/download-geographical-names-data/9245,,,Province,,
IARYO_1,,Canada,Province - Alberta,,,52.3822222,,-118.19,Athabasca Pass,,https://natural-resources.canada.ca/earth-sciences/geography/download-geographical-names-data/9245,,,Province,,
IACKQ_1,,Canada,Province - Alberta,,,52.383333,,-118.18889,Athabasca Pass National Historic Site of Canada,,https://natural-resources.canada.ca/earth-sciences/geography/download-geographical-names-data/9245,,,Province,,
IATZT_1,,Canada,Province - Alberta,,,58.6666667,,-110.8333333,Athabasca River,,https://natural-resources.canada.ca/earth-sciences/geography/download-geographical-names-data/9245,,,Province,,
IAQZZ_1,,Canada,Province - Alberta,,,53.588889,,-113.54861,Athlone,,https://natural-resources.canada.ca/earth-sciences/geography/download-geographical-names-data/9245,,,Province,,
IATTD_1,,Canada,Province - Alberta,,,58.7391667,,-115.4836111,Atihk Sakahikun,,https://natural-resources.canada.ca/earth-sciences/geography/download-geographical-names-data/9245,,,Province,,
IASTK_1,,Canada,Province - Alberta,,,55.9169444,,-115.6513889,Atikameg,,https://natural-resources.canada.ca/earth-sciences/geography/download-geographical-names-data/9245,,,Province,,
IACKT_1,,Canada,Province - Alberta,,,54.6066667,,-116.8533333,Atikkamek Creek,,https://natural-resources.canada.ca/earth-sciences/geography/download-geographical-names-data/9245,,,Province,,
IACKV_1,,Canada,Province - Alberta,,,53.5980556,,-113.7558333,Atim Creek,,https://natural-resources.canada.ca/earth-sciences/geography/download-geographical-names-data/9245,,,Province,,
IACKW_1,,Canada,Province - Alberta,,,53.5936111,,-113.8341667,Atim Lake,,https://natural-resources.canada.ca/earth-sciences/geography/download-geographical-names-data/9245,,,Province,,
IACKX_1,,Canada,Province - Alberta,,,51.4186111,,-114.8405556,Atkinson Creek,,https://natural-resources.canada.ca/earth-sciences/geography/download-geographical-names-data/9245,,,Province,,
IACKZ_1,,Canada,Province - Alberta,,,50.8416667,,-110.9502778,Atlee,,https://natural-resources.canada.ca/earth-sciences/geography/download-geographical-names-data/9245,,,Province,,
IACLB_1,,Canada,Province - Alberta,,,54.8191667,,-112.5497222,Atmore,,https://natural-resources.canada.ca/earth-sciences/geography/download-geographical-names-data/9245,,,Province,,
IACLC_1,,Canada,Province - Alberta,,,51.3130556,,-113.0547222,Atusis Creek,,https://natural-resources.canada.ca/earth-sciences/geography/download-geographical-names-data/9245,,,Province,,
IACLD_1,,Canada,Province - Alberta,,,53.0583333,,-110.8591667,Auburndale,,https://natural-resources.canada.ca/earth-sciences/geography/download-geographical-names-data/9245,,,Province,,
IACLE_1,,Canada,Province - Alberta,,,57.6444445,,-110.9122222,Audet Lake,,https://natural-resources.canada.ca/earth-sciences/geography/download-geographical-names-data/9245,,,Province,,
IACLF_1,,Canada,Province - Alberta,,,55.3994444,,-115.2533333,Auger Bay,,https://natural-resources.canada.ca/earth-sciences/geography/download-geographical-names-data/9245,,,Province,,
IACLG_1,,Canada,Province - Alberta,,,54.7208334,,-112.5166667,Auger Lake,,https://natural-resources.canada.ca/earth-sciences/geography/download-geographical-names-data/9245,,,Province,,
IACLH_1,,Canada,Province - Alberta,,,51.3344444,,-114.9352778,Aura Creek,,https://natural-resources.canada.ca/earth-sciences/geography/download-geographical-names-data/9245,,,Province,,
IACLI_1,,Canada,Province - Alberta,,,50.825,,-115.5427778,Aurora Mountain,,https://natural-resources.canada.ca/earth-sciences/geography/download-geographical-names-data/9245,,,Province,,
IACLJ_1,,Canada,Province - Alberta,,,53.5855555,,-119.8652778,Avalanche Creek,,https://natural-resources.canada.ca/earth-sciences/geography/download-geographical-names-data/9245,,,Province,,
IACLK_1,,Canada,Province - Alberta,,,53.6161111,,-119.9108333,Avalanche Pass,,https://natural-resources.canada.ca/earth-sciences/geography/download-geographical-names-data/9245,,,Province,,
IACLL_1,,Canada,Province - Alberta,,,55.0405555,,-112.2808333,Avenir,,https://natural-resources.canada.ca/earth-sciences/geography/download-geographical-names-data/9245,,,Province,,
IACLN_1,,Canada,Province - Alberta,,,49.1563888,,-114.1138889,Avion Ridge,,https://natural-resources.canada.ca/earth-sciences/geography/download-geographical-names-data/9245,,,Province,,
IACLO_1,,Canada,Province - Alberta,,,53.5,,-113.45,Avonmore,,https://natural-resources.canada.ca/earth-sciences/geography/download-geographical-names-data/9245,,,Province,,
IACLP_1,,Canada,Province - Alberta,,,50.8444445,,-115.6430556,Aye Mountain,,https://natural-resources.canada.ca/earth-sciences/geography/download-geographical-names-data/9245,,,Province,,
IASZP_1,,Canada,Province - Alberta,,,51.2922222,,-115.4161111,Aylmer Canyon,,https://natural-resources.canada.ca/earth-sciences/geography/download-geographical-names-data/9245,,,Province,,
IASHC_1,,Canada,Province - Alberta,,,51.3177778,,-115.4552778,Aylmer Pass,,https://natural-resources.canada.ca/earth-sciences/geography/download-geographical-names-data/9245,,,Province,,
IACWA_1,,Canada,Province - Alberta,,,52.4586111,,-117.0102778,Aztec Lake,,https://natural-resources.canada.ca/earth-sciences/geography/download-geographical-names-data/9245,,,Province,,
IARPW_1,,Canada,Province - Alberta,,,50.5011111,,-113.87,Azure,,https://natural-resources.canada.ca/earth-sciences/geography/download-geographical-names-data/9245,,,Province,,
IACWC_1,,Canada,Province - Alberta,,,53.4580556,,-119.0025,Azure Lake,,https://natural-resources.canada.ca/earth-sciences/geography/download-geographical-names-data/9245,,,Province,,
IACWF_1,,Canada,Province - Alberta,,,51.3327778,,-116.1755556,Babel Creek,,https://natural-resources.canada.ca/earth-sciences/geography/download-geographical-names-data/9245,,,,,
IACWI_1,,Canada,Province - Alberta,,,54.6469445,,-113.0786111,Babette Creek,,https://natural-resources.canada.ca/earth-sciences/geography/download-geographical-names-data/9245,,,,,
IACWK_1,,Canada,Province - Alberta,,,53.1619445,,-116.7677778,Bacon Creek,,https://natural-resources.canada.ca/earth-sciences/geography/download-geographical-names-data/9245,,,,,
IACWS_1,,Canada,Province - Alberta,,,55.5,,-118.3,Bad Heart,,https://natural-resources.canada.ca/earth-sciences/geography/download-geographical-names-data/9245,,,,,
IACWT_1,,Canada,Province - Alberta,,,55.5522222,,-118.1930556,Bad Heart River,,https://natural-resources.canada.ca/earth-sciences/geography/download-geographical-names-data/9245,,,,,
IACWV_1,,Canada,Province - Alberta,,,50.0825,,-111.7625,Bad Land Hills,,https://natural-resources.canada.ca/earth-sciences/geography/download-geographical-names-data/9245,,,,,
IADNO_1,,Canada,Province - Alberta,,,57.0938889,,-114.64,Bad Rapids,,https://natural-resources.canada.ca/earth-sciences/geography/download-geographical-names-data/9245,,,,,
IACWM_1,,Canada,Province - Alberta,,,52.8219445,,-110.9933333,Badger Hill,,https://natural-resources.canada.ca/earth-sciences/geography/download-geographical-names-data/9245,,,,,
IADNN_1,,Canada,Province - Alberta,,,50.3802778,,-112.4644444,Badger Lake,,https://natural-resources.canada.ca/earth-sciences/geography/download-geographical-names-data/9245,,,,,
IACWQ_1,,Canada,Province - Alberta,,,51.4108333,,-115.8933333,Badger Pass,,https://natural-resources.canada.ca/earth-sciences/geography/download-geographical-names-data/9245,,,,,
IACWX_1,,Canada,Province - Alberta,,,52.9775,,-116.8366667,Bailey Creek,,https://natural-resources.canada.ca/earth-sciences/geography/download-geographical-names-data/9245,,,,,
IADNP_1,,Canada,Province - Alberta,,,59.9461111,,-110.1705556,Bailey Lake,,https://natural-resources.canada.ca/earth-sciences/geography/download-geographical-names-data/9245,,,,,
IACWY_1,,Canada,Province - Alberta,,,53.5488889,,-112.8933333,Bailey Lakes,,https://natural-resources.canada.ca/earth-sciences/geography/download-geographical-names-data/9245,,,,,
IARTT_1,,Canada,Province - Alberta,,,49.6319444,,-112.9166667,Bailey's Bottom,,https://natural-resources.canada.ca/earth-sciences/geography/download-geographical-names-data/9245,,,,,
IACXA_1,,Canada,Province - Alberta,,,49.2738889,,-110.3977778,Bain,,https://natural-resources.canada.ca/earth-sciences/geography/download-geographical-names-data/9245,,,,,
IACXC_1,,Canada,Province - Alberta,,,51.1733333,,-113.2422222,Baintree,,https://natural-resources.canada.ca/earth-sciences/geography/download-geographical-names-data/9245,,,,,
IACXD_1,,Canada,Province - Alberta,,,54.3413889,,-114.4063889,Baird Lake,,https://natural-resources.canada.ca/earth-sciences/geography/download-geographical-names-data/9245,,,,,
IACXE_1,,Canada,Province - Alberta,,,51.3458333,,-116.0694444,Baker Creek,,https://natural-resources.canada.ca/earth-sciences/geography/download-geographical-names-data/9245,,,,,
IACXG_1,,Canada,Province - Alberta,,,53.0347222,,-110.2502778,Baker Lake,,https://natural-resources.canada.ca/earth-sciences/geography/download-geographical-names-data/9245,,,,,
IACXJ_1,,Canada,Province - Alberta,,,54.8905556,,-118.6963889,Bald Mountain Creek,,https://natural-resources.canada.ca/earth-sciences/geography/download-geographical-names-data/9245,,,,,
IACXL_1,,Canada,Province - Alberta,,,51.5922222,,-116.3994444,Balfour Creek,,https://natural-resources.canada.ca/earth-sciences/geography/download-geographical-names-data/9245,,,,,
IACXM_1,,Canada,Province - Alberta,,,51.5719445,,-116.4305556,Balfour Glacier,,https://natural-resources.canada.ca/earth-sciences/geography/download-geographical-names-data/9245,,,,,
IACXO_1,,Canada,Province - Alberta,,,51.5872222,,-116.4719444,Balfour Pass,,https://natural-resources.canada.ca/earth-sciences/geography/download-geographical-names-data/9245,,,,,
IACXP_1,,Canada,Province - Alberta,,,52.7758334,,-117.3666667,Balinhard Creek,,https://natural-resources.canada.ca/earth-sciences/geography/download-geographical-names-data/9245,,,,,
IACXV_1,,Canada,Province - Alberta,,,53.5205556,,-113.2741667,Ball Lake,,https://natural-resources.canada.ca/earth-sciences/geography/download-geographical-names-data/9245,,,,,
IADNS_1,,Canada,Province - Alberta,,,51.1263889,,-115.9886111,Ball Pass,,https://natural-resources.canada.ca/earth-sciences/geography/download-geographical-names-data/9245,,,,,
IADNT_1,,Canada,Province - Alberta,,,51.1505556,,-115.9891667,Ball Range,,https://natural-resources.canada.ca/earth-sciences/geography/download-geographical-names-data/9245,,,,,
IACXS_1,,Canada,Province - Alberta,,,53.9172223,,-114.5666667,Ballantine,,https://natural-resources.canada.ca/earth-sciences/geography/download-geographical-names-data/9245,,,,,
IACXT_1,,Canada,Province - Alberta,,,55.5769444,,-117.1841667,Ballater,,https://natural-resources.canada.ca/earth-sciences/geography/download-geographical-names-data/9245,,,,,
IACXX_1,,Canada,Province - Alberta,,,53.9197222,,-115.2644444,Balm,,https://natural-resources.canada.ca/earth-sciences/geography/download-geographical-names-data/9245,,,,,
IACYA_1,,Canada,Province - Alberta,,,53.583333,,-113.45,Balwin,,https://natural-resources.canada.ca/earth-sciences/geography/download-geographical-names-data/9245,,,,,
IACYB_1,,Canada,Province - Alberta,,,51.2133334,,-114.0094444,Balzac,,https://natural-resources.canada.ca/earth-sciences/geography/download-geographical-names-data/9245,,,,,
IACYC_1,,Canada,Province - Alberta,,,54.7197222,,-113.8358333,Banana Lake,,https://natural-resources.canada.ca/earth-sciences/geography/download-geographical-names-data/9245,,,,,
IACYD_1,,Canada,Province - Alberta,,,50.7183333,,-114.9180556,Banded Peak,,https://natural-resources.canada.ca/earth-sciences/geography/download-geographical-names-data/9245,,,,,
IACYE_1,,Canada,Province - Alberta,,,51.1777778,,-115.5736111,Banff,,https://natural-resources.canada.ca/earth-sciences/geography/download-geographical-names-data/9245,,,,,
IATZH_1,,Canada,Province - Alberta,,,51.6,,-116.05,Banff National Park of Canada,,https://natural-resources.canada.ca/earth-sciences/geography/download-geographical-names-data/9245,,,,,
IATZX_1,,Canada,Province - Alberta,,,51.173333,,-115.57222,Banff Park Museum National Historic Site of Canada,,https://natural-resources.canada.ca/earth-sciences/geography/download-geographical-names-data/9245,,,,,
IACYF_1,,Canada,Province - Alberta,,,51.066667,,-114.11667,Banff Trail,,https://natural-resources.canada.ca/earth-sciences/geography/download-geographical-names-data/9245,,,,,
IARXJ_1,,Canada,Province - Alberta,,,51.213056,,-115.53444,Banff Training Area,,https://natural-resources.canada.ca/earth-sciences/geography/download-geographical-names-data/9245,,,,,
IACYG_1,,Canada,Province - Alberta,,,54.1561111,,-111.0338889,Bangs Lake,,https://natural-resources.canada.ca/earth-sciences/geography/download-geographical-names-data/9245,,,,,
IADNU_1,,Canada,Province - Alberta,,,54.5705556,,-110.2347222,Bank Bay,,https://natural-resources.canada.ca/earth-sciences/geography/download-geographical-names-data/9245,,,,,
IACYH_1,,Canada,Province - Alberta,,,54.0252778,,-119.7838889,Bank Creek,,https://natural-resources.canada.ca/earth-sciences/geography/download-geographical-names-data/9245,,,,,
IACYI_1,,Canada,Province - Alberta,,,51.6616667,,-115.3086111,Bankfoot Creek,,https://natural-resources.canada.ca/earth-sciences/geography/download-geographical-names-data/9245,,,,,
IACYJ_1,,Canada,Province - Alberta,,,51.2075,,-115.5347222,Bankhead,,https://natural-resources.canada.ca/earth-sciences/geography/download-geographical-names-data/9245,,,,,
IACYK_1,,Canada,Province - Alberta,,,53.7472223,,-113.5375,Banko Junction,,https://natural-resources.canada.ca/earth-sciences/geography/download-geographical-names-data/9245,,,,,
IACYM_1,,Canada,Province - Alberta,,,51.033333,,-114.1,Bankview,,https://natural-resources.canada.ca/earth-sciences/geography/download-geographical-names-data/9245,,,,,
IATRR_1,,Canada,Province - Alberta,,,53.598611,,-113.375,Bannerman,,https://natural-resources.canada.ca/earth-sciences/geography/download-geographical-names-data/9245,,,,,
IACYN_1,,Canada,Province - Alberta,,,50.4938889,,-111.7333333,Bantry,,https://natural-resources.canada.ca/earth-sciences/geography/download-geographical-names-data/9245,,,,,
IACYP_1,,Canada,Province - Alberta,,,54.7666667,,-113.4558333,Baptiste Creek,,https://natural-resources.canada.ca/earth-sciences/geography/download-geographical-names-data/9245,,,,,
IACYQ_1,,Canada,Province - Alberta,,,54.74,,-113.5366667,Baptiste Lake,,https://natural-resources.canada.ca/earth-sciences/geography/download-geographical-names-data/9245,,,,,
IACYT_1,,Canada,Province - Alberta,,,52.6736111,,-115.075,Baptiste River,,https://natural-resources.canada.ca/earth-sciences/geography/download-geographical-names-data/9245,,,,,
IATZZ_1,,Canada,Province - Alberta,,,50.420278,,-114.24444,Bar U Ranch National Historic Site of Canada,,https://natural-resources.canada.ca/earth-sciences/geography/download-geographical-names-data/9245,,,,,
IATSG_1,,Canada,Province - Alberta,,,53.606944,,-113.53472,Baranow,,https://natural-resources.canada.ca/earth-sciences/geography/download-geographical-names-data/9245,,,,,
IACYW_1,,Canada,Province - Alberta,,,53.6347222,,-117.7094444,Barbara Creek,,https://natural-resources.canada.ca/earth-sciences/geography/download-geographical-names-data/9245,,,,,
IACYX_1,,Canada,Province - Alberta,,,54.5305555,,-110.8691667,Barbara Lake,,https://natural-resources.canada.ca/earth-sciences/geography/download-geographical-names-data/9245,,,,,
IACYY_1,,Canada,Province - Alberta,,,58.1033333,,-110.8591667,Barber Lake,,https://natural-resources.canada.ca/earth-sciences/geography/download-geographical-names-data/9245,,,,,
IACYZ_1,,Canada,Province - Alberta,,,51.7466667,,-116.6163889,Barbette Glacier,,https://natural-resources.canada.ca/earth-sciences/geography/download-geographical-names-data/9245,,,,,
IACZA_1,,Canada,Province - Alberta,,,51.725,,-116.616667,Barbette Mountain,,https://natural-resources.canada.ca/earth-sciences/geography/download-geographical-names-data/9245,,,,,
IACZC_1,,Canada,Province - Alberta,,,53.8166667,,-114.0166667,Bard Lake,,https://natural-resources.canada.ca/earth-sciences/geography/download-geographical-names-data/9245,,,,,
IACZD_1,,Canada,Province - Alberta,,,53.2986111,,-112.6875,Bardo,,https://natural-resources.canada.ca/earth-sciences/geography/download-geographical-names-data/9245,,,,,
IACZE_1,,Canada,Province - Alberta,,,49.2344444,,-110.0144444,Bare Creek,,https://natural-resources.canada.ca/earth-sciences/geography/download-geographical-names-data/9245,,,,,
IACZF_1,,Canada,Province - Alberta,,,51.58,,-115.731111,Bare Range,,https://natural-resources.canada.ca/earth-sciences/geography/download-geographical-names-data/9245,,,,,
IACZG_1,,Canada,Province - Alberta,,,51.5480555,,-113.4730556,Bargrave,,https://natural-resources.canada.ca/earth-sciences/geography/download-geographical-names-data/9245,,,,,
IACZH_1,,Canada,Province - Alberta,,,54.1805556,,-112.6266667,Barich,,https://natural-resources.canada.ca/earth-sciences/geography/download-geographical-names-data/9245,,,,,
IACZJ_1,,Canada,Province - Alberta,,,53.3722222,,-116.8722222,Baril Creek,,https://natural-resources.canada.ca/earth-sciences/geography/download-geographical-names-data/9245,,,,,
IACZK_1,,Canada,Province - Alberta,,,58.7652778,,-111.6855556,Baril Lake,,https://natural-resources.canada.ca/earth-sciences/geography/download-geographical-names-data/9245,,,,,
IACZL_1,,Canada,Province - Alberta,,,50.2994444,,-114.7563889,Baril Peak,,https://natural-resources.canada.ca/earth-sciences/geography/download-geographical-names-data/9245,,,,,
IACZM_1,,Canada,Province - Alberta,,,58.9161111,,-111.7405556,Baril River,,https://natural-resources.canada.ca/earth-sciences/geography/download-geographical-names-data/9245,,,,,
IADNW_1,,Canada,Province - Alberta,,,50.9019444,,-112.3527778,Barkenhouse Lake,,https://natural-resources.canada.ca/earth-sciences/geography/download-geographical-names-data/9245,,,,,
IACZN_1,,Canada,Province - Alberta,,,53.05,,-112.8166667,Barlee Junction,,https://natural-resources.canada.ca/earth-sciences/geography/download-geographical-names-data/9245,,,,,
IACZO_1,,Canada,Province - Alberta,,,51.0080555,,-113.9633333,Barlow,,https://natural-resources.canada.ca/earth-sciences/geography/download-geographical-names-data/9245,,,,,
IACZQ_1,,Canada,Province - Alberta,,,49.3652778,,-114.3447222,Barnaby Creek,,https://natural-resources.canada.ca/earth-sciences/geography/download-geographical-names-data/9245,,,,,
IACZR_1,,Canada,Province - Alberta,,,49.3380555,,-114.3819444,Barnaby Lake,,https://natural-resources.canada.ca/earth-sciences/geography/download-geographical-names-data/9245,,,,,
IAGDE_1,,Canada,Province - Alberta,,,49.3,,-114.3666667,Barnaby Ridge,,https://natural-resources.canada.ca/earth-sciences/geography/download-geographical-names-data/9245,,,,,
IACZS_1,,Canada,Province - Alberta,,,51.7430556,,-116.9458333,Barnard Dent Group,,https://natural-resources.canada.ca/earth-sciences/geography/download-geographical-names-data/9245,,,,,
IACZU_1,,Canada,Province - Alberta,,,54.7925,,-111.8266667,Barnegat,,https://natural-resources.canada.ca/earth-sciences/geography/download-geographical-names-data/9245,,,,,
IACZW_1,,Canada,Province - Alberta,,,51.0580556,,-114.6755556,Barnes Ridge,,https://natural-resources.canada.ca/earth-sciences/geography/download-geographical-names-data/9245,,,,,
NPNHS_00118,,Canada,Lieu historique national du Canada Ardgowan,,,,,,Ardgowan,,https://www.lunaris.ca/catalog/dd7e21b7-76e2-54c0-a7a6-497346d4f0bc?locale=en&q=National+Parks+and+National+Historic+Sites,,,National Historic Site of Canada,,
IACZY_1,,Canada,Province - Alberta,,,52.2619444,,-112.5813889,Barnett Lake,,https://natural-resources.canada.ca/earth-sciences/geography/download-geographical-names-data/9245,,,,,
IADAA_1,,Canada,Province - Alberta,,,49.7605556,,-112.2633333,Barnwell,,https://natural-resources.canada.ca/earth-sciences/geography/download-geographical-names-data/9245,,,,,
IADAB_1,,Canada,Province - Alberta,,,49.9966667,,-113.0830556,Barons,,https://natural-resources.canada.ca/earth-sciences/geography/download-geographical-names-data/9245,,,,,
IADKU_1,,Canada,Province - Alberta,,,55.1866667,,-119.9008333,Barr Creek,,https://natural-resources.canada.ca/earth-sciences/geography/download-geographical-names-data/9245,,,,,
IADKW_1,,Canada,Province - Alberta,,,54.2744445,,-110.695,Barreyre Lake,,https://natural-resources.canada.ca/earth-sciences/geography/download-geographical-names-data/9245,,,,,
IADKX_1,,Canada,Province - Alberta,,,54.1216667,,-114.4036111,Barrhead,,https://natural-resources.canada.ca/earth-sciences/geography/download-geographical-names-data/9245,,,,,
IADLA_1,,Canada,Province - Alberta,,,53.4036111,,-119.4822222,Barricade Mountain,,https://natural-resources.canada.ca/earth-sciences/geography/download-geographical-names-data/9245,,,,,
IAIZA_1,,Canada,Province - Alberta,,,51.016667,,-115.06667,Barrier Lake,,https://natural-resources.canada.ca/earth-sciences/geography/download-geographical-names-data/9245,,,,,
IADLC_1,,Canada,Province - Alberta,,,51.6575,,-115.6169444,Barrier Mountain,,https://natural-resources.canada.ca/earth-sciences/geography/download-geographical-names-data/9245,,,,,
IAIZB_1,,Canada,Province - Alberta,,,59.2508334,,-111.2247222,Barrow Lake,,https://natural-resources.canada.ca/earth-sciences/geography/download-geographical-names-data/9245,,,,,
IADLD_1,,Canada,Province - Alberta,,,51.8441666,,-114.9316667,Barry Creek,,https://natural-resources.canada.ca/earth-sciences/geography/download-geographical-names-data/9245,,,,,
IADLE_1,,Canada,Province - Alberta,,,51.1152778,,-111.4527778,Bartman Reservoir,,https://natural-resources.canada.ca/earth-sciences/geography/download-geographical-names-data/9245,,,,,
IARAT_1,,Canada,Province - Alberta,,,54.035,,-114.5672222,Barton Lake,,https://natural-resources.canada.ca/earth-sciences/geography/download-geographical-names-data/9245,,,,,
IADLF_1,,Canada,Province - Alberta,,,55.3941667,,-116.9319444,Bartsch Creek,,https://natural-resources.canada.ca/earth-sciences/geography/download-geographical-names-data/9245,,,,,
IADLG_1,,Canada,Province - Alberta,,,50.8780556,,-113.1661111,Bartstow,,https://natural-resources.canada.ca/earth-sciences/geography/download-geographical-names-data/9245,,,,,
IAAGW_1,,Canada,Province - Alberta,,,54.4075,,-110.27556,Base des Forces canadiennes Cold Lake,,https://natural-resources.canada.ca/earth-sciences/geography/download-geographical-names-data/9245,,,,,
IAAHI_1,,Canada,Province - Alberta,,,50.2733334,,-111.175,Base des Forces canadiennes Suffield,,https://natural-resources.canada.ca/earth-sciences/geography/download-geographical-names-data/9245,,,,,
IAIZC_1,,Canada,Province - Alberta,,,55.6491667,,-111.845,Base Lake,,https://natural-resources.canada.ca/earth-sciences/geography/download-geographical-names-data/9245,,,,,
IADLJ_1,,Canada,Province - Alberta,,,52.2069445,,-115.1927778,Base Line Creek,,https://natural-resources.canada.ca/earth-sciences/geography/download-geographical-names-data/9245,,,,,
IADLM_1,,Canada,Province - Alberta,,,54.2375,,-119.845,Base Line Lake,,https://natural-resources.canada.ca/earth-sciences/geography/download-geographical-names-data/9245,,,,,
IADLK_1,,Canada,Province - Alberta,,,53.5322223,,-117.3505556,Baseline Creek,,https://natural-resources.canada.ca/earth-sciences/geography/download-geographical-names-data/9245,,,,,
NPNHS_00047,,Canada,Site patrimonial du Parc-de-l'Artillerie,,,,,,Artillery Park,,https://www.lunaris.ca/catalog/dd7e21b7-76e2-54c0-a7a6-497346d4f0bc?locale=en&q=National+Parks+and+National+Historic+Sites,,,Heritage Site,,
IADLL_1,,Canada,Province - Alberta,,,54.2338889,,-115.9136111,Baseline Lake,,https://natural-resources.canada.ca/earth-sciences/geography/download-geographical-names-data/9245,,,,,
IADLN_1,,Canada,Province - Alberta,,,52.1333333,,-115.4291667,Baseline Mountain,,https://natural-resources.canada.ca/earth-sciences/geography/download-geographical-names-data/9245,,,,,
IADLO_1,,Canada,Province - Alberta,,,52.5830555,,-112.9702778,Bashaw,,https://natural-resources.canada.ca/earth-sciences/geography/download-geographical-names-data/9245,,,,,
IADLP_1,,Canada,Province - Alberta,,,52.8055556,,-118.3422222,Basilica Mountain,,https://natural-resources.canada.ca/earth-sciences/geography/download-geographical-names-data/9245,,,,,
IADLQ_1,,Canada,Province - Alberta,,,50.7875,,-112.4683333,Bassano,,https://natural-resources.canada.ca/earth-sciences/geography/download-geographical-names-data/9245,,,,,
IADLT_1,,Canada,Province - Alberta,,,58.3194444,,-118.4777778,Basset Lake,,https://natural-resources.canada.ca/earth-sciences/geography/download-geographical-names-data/9245,,,,,
IADLU_1,,Canada,Province - Alberta,,,52.7097222,,-118.345,Bastion Peak,,https://natural-resources.canada.ca/earth-sciences/geography/download-geographical-names-data/9245,,,,,
IADME_1,,Canada,Province - Alberta,,,56.3,,-114.95,Bat Lake,,https://natural-resources.canada.ca/earth-sciences/geography/download-geographical-names-data/9245,,,,,
IADLV_1,,Canada,Province - Alberta,,,51.0380555,,-114.8127778,Bateman Creek,,https://natural-resources.canada.ca/earth-sciences/geography/download-geographical-names-data/9245,,,,,
IADLW_1,,Canada,Province - Alberta,,,51.0905556,,-114.5938889,Bateman Ridge,,https://natural-resources.canada.ca/earth-sciences/geography/download-geographical-names-data/9245,,,,,
IADLX_1,,Canada,Province - Alberta,,,54.2047222,,-110.025,Bates Lake,,https://natural-resources.canada.ca/earth-sciences/geography/download-geographical-names-data/9245,,,,,
IADLY_1,,Canada,Province - Alberta,,,51.4408333,,-116.2077778,Bath Creek,,https://natural-resources.canada.ca/earth-sciences/geography/download-geographical-names-data/9245,,,,,
IADMA_1,,Canada,Province - Alberta,,,51.5166666,,-116.3833333,Bath Glacier,,https://natural-resources.canada.ca/earth-sciences/geography/download-geographical-names-data/9245,,,,,
IADMG_1,,Canada,Province - Alberta,,,52.8422222,,-110.6555556,Battensby Lake,,https://natural-resources.canada.ca/earth-sciences/geography/download-geographical-names-data/9245,,,,,
IADMH_1,,Canada,Province - Alberta,,,51.6366667,,-111.8227778,Batter Junction,,https://natural-resources.canada.ca/earth-sciences/geography/download-geographical-names-data/9245,,,,,
IADMJ_1,,Canada,Province - Alberta,,,52.4488889,,-111.4452778,Battle Bend,,https://natural-resources.canada.ca/earth-sciences/geography/download-geographical-names-data/9245,,,,,
IADMK_1,,Canada,Province - Alberta,,,52.7094444,,-111.1419444,Battle Butte,,https://natural-resources.canada.ca/earth-sciences/geography/download-geographical-names-data/9245,,,,,
IAIZZ_1,,Canada,Province - Alberta,,,49.6483333,,-110.005,Battle Creek,,https://natural-resources.canada.ca/earth-sciences/geography/download-geographical-names-data/9245,,,,,
IADMM_1,,Canada,Province - Alberta,,,52.9683333,,-114.1891667,Battle Lake,,https://natural-resources.canada.ca/earth-sciences/geography/download-geographical-names-data/9245,,,,,
IARTK_1,,Canada,Province - Alberta,,,52.8572222,,-110,Battle River,,https://natural-resources.canada.ca/earth-sciences/geography/download-geographical-names-data/9245,,,,,
IADMV_1,,Canada,Province - Alberta,,,54.1047222,,-111.6061111,Batty Lake,,https://natural-resources.canada.ca/earth-sciences/geography/download-geographical-names-data/9245,,,,,
IATRZ_1,,Canada,Province - Alberta,,,53.633333,,-113.50139,Baturyn,,https://natural-resources.canada.ca/earth-sciences/geography/download-geographical-names-data/9245,,,,,
IADMX_1,,Canada,Province - Alberta,,,49.1255556,,-114.0202778,Bauerman Creek,,https://natural-resources.canada.ca/earth-sciences/geography/download-geographical-names-data/9245,,,,,
IASTW_1,,Canada,Province - Alberta,,,53.2844445,,-111.0494444,Bauer's Lake,,https://natural-resources.canada.ca/earth-sciences/geography/download-geographical-names-data/9245,,,,,
IAKEQ_1,,Canada,Province - Alberta,,,52.9194444,,-112.466111,Bawlf,,https://natural-resources.canada.ca/earth-sciences/geography/download-geographical-names-data/9245,,,,,
IADNE_1,,Canada,Province - Alberta,,,52.9058333,,-110.7216667,Baxter Lakes,,https://natural-resources.canada.ca/earth-sciences/geography/download-geographical-names-data/9245,,,,,
IADNC_1,,Canada,Province - Alberta,,,55.825,,-119.9061111,Bay Tree,,https://natural-resources.canada.ca/earth-sciences/geography/download-geographical-names-data/9245,,,,,
IADMZ_1,,Canada,Province - Alberta,,,57.7694445,,-112.4011111,Bayard Lake,,https://natural-resources.canada.ca/earth-sciences/geography/download-geographical-names-data/9245,,,,,
IADNA_1,,Canada,Province - Alberta,,,51.2730555,,-114.7905556,Baymar Creek,,https://natural-resources.canada.ca/earth-sciences/geography/download-geographical-names-data/9245,,,,,
IADNB_1,,Canada,Province - Alberta,,,59.9338889,,-110.3036111,Bayonet Lake,,https://natural-resources.canada.ca/earth-sciences/geography/download-geographical-names-data/9245,,,,,
IADND_1,,Canada,Province - Alberta,,,50.966667,,-114.1,Bayview,,https://natural-resources.canada.ca/earth-sciences/geography/download-geographical-names-data/9245,,,,,
IADNZ_1,,Canada,Province - Alberta,,,53.5416666,,-114.1219444,Beach Corner,,https://natural-resources.canada.ca/earth-sciences/geography/download-geographical-names-data/9245,,,,,
IADOA_1,,Canada,Province - Alberta,,,54.1797223,,-111.1525,Beacon Corner,,https://natural-resources.canada.ca/earth-sciences/geography/download-geographical-names-data/9245,,,,,
IATRE_1,,Canada,Province - Alberta,,,53.573611,,-113.40694,Beacon Heights,,https://natural-resources.canada.ca/earth-sciences/geography/download-geographical-names-data/9245,,,,,
IADOC_1,,Canada,Province - Alberta,,,52.5397222,,-118.2730556,Beacon Lake,,https://natural-resources.canada.ca/earth-sciences/geography/download-geographical-names-data/9245,,,,,
IADOE_1,,Canada,Province - Alberta,,,52.5402777,,-118.2422222,Beacon Peak,,https://natural-resources.canada.ca/earth-sciences/geography/download-geographical-names-data/9245,,,,,
IAJAA_1,,Canada,Province - Alberta,,,50.0669444,,-114.2511111,Beagle Creek,,https://natural-resources.canada.ca/earth-sciences/geography/download-geographical-names-data/9245,,,,,
IADOI_1,,Canada,Province - Alberta,,,56.2172222,,-119.8186111,Bear Canyon,,https://natural-resources.canada.ca/earth-sciences/geography/download-geographical-names-data/9245,,,,,
IADOJ_1,,Canada,Province - Alberta,,,49.1508333,,-111.2052778,Bear Creek,,https://natural-resources.canada.ca/earth-sciences/geography/download-geographical-names-data/9245,,,,,
IADOT_1,,Canada,Province - Alberta,,,52.8563889,,-113.5355556,Bear Hills,,https://natural-resources.canada.ca/earth-sciences/geography/download-geographical-names-data/9245,,,,,
IADYR_1,,Canada,Province - Alberta,,,55.2516667,,-118.9958333,Bear Lake,,https://natural-resources.canada.ca/earth-sciences/geography/download-geographical-names-data/9245,,,,,
IASTU_1,,Canada,Province - Alberta,,,50.2183333,,-114.4305556,Bear Pond,,https://natural-resources.canada.ca/earth-sciences/geography/download-geographical-names-data/9245,,,,,
IADYT_1,,Canada,Province - Alberta,,,58.3308333,,-115.4138889,Bear River,,https://natural-resources.canada.ca/earth-sciences/geography/download-geographical-names-data/9245,,,,,
IADYZ_1,,Canada,Province - Alberta,,,51.6394444,,-114.7288889,Bear Valley,,https://natural-resources.canada.ca/earth-sciences/geography/download-geographical-names-data/9245,,,,,
NPNHS_00168,,Canada,Parc national du Canada Aulavik,,,,,,Aulavik National Park ,,https://www.lunaris.ca/catalog/dd7e21b7-76e2-54c0-a7a6-497346d4f0bc?locale=en&q=National+Parks+and+National+Historic+Sites,,,National Park of Canada,,
IADOF_1,,Canada,Province - Alberta,,,51.8538889,,-114.9230556,Bearberry,,https://natural-resources.canada.ca/earth-sciences/geography/download-geographical-names-data/9245,,,,,
IADOG_1,,Canada,Province - Alberta,,,51.7994444,,-114.635,Bearberry Creek,,https://natural-resources.canada.ca/earth-sciences/geography/download-geographical-names-data/9245,,,,,
NPNHS_00028,,Canada,Parc national du Canada Auyuittuq,,,,,,Auyuittuq National Park ,,https://www.lunaris.ca/catalog/dd7e21b7-76e2-54c0-a7a6-497346d4f0bc?locale=en&q=National+Parks+and+National+Historic+Sites,,,National Park of Canada,,
IADOH_1,,Canada,Province - Alberta,,,51.7791667,,-114.7752778,Bearberry Prairie,,https://natural-resources.canada.ca/earth-sciences/geography/download-geographical-names-data/9245,,,,,
IADOS_1,,Canada,Province - Alberta,,,56.0236111,,-116.9713889,Bearhead Creek,,https://natural-resources.canada.ca/earth-sciences/geography/download-geographical-names-data/9245,,,,,
IADYJ_1,,Canada,Province - Alberta,,,52.9386111,,-113.6138889,Bearhills Lake,,https://natural-resources.canada.ca/earth-sciences/geography/download-geographical-names-data/9245,,,,,
IADYW_1,,Canada,Province - Alberta,,,49.0658334,,-113.9161111,Bears Hump,,https://natural-resources.canada.ca/earth-sciences/geography/download-geographical-names-data/9245,,,,,
IATPG_1,,Canada,Province - Alberta,,,53.441667,,-113.5,Bearspaw,,https://natural-resources.canada.ca/earth-sciences/geography/download-geographical-names-data/9245,,,,,
IADYY_1,,Canada,Province - Alberta,,,54.2041667,,-110.5372222,Beartrap Lake,,https://natural-resources.canada.ca/earth-sciences/geography/download-geographical-names-data/9245,,,,,
IADZA_1,,Canada,Province - Alberta,,,56.5194444,,-117.6844444,Beaton Creek,,https://natural-resources.canada.ca/earth-sciences/geography/download-geographical-names-data/9245,,,,,
IADZB_1,,Canada,Province - Alberta,,,52.8805556,,-117.5225,Beatty Creek,,https://natural-resources.canada.ca/earth-sciences/geography/download-geographical-names-data/9245,,,,,
IADZC_1,,Canada,Province - Alberta,,,59.8605555,,-118.0522222,Beatty Lake,,https://natural-resources.canada.ca/earth-sciences/geography/download-geographical-names-data/9245,,,,,
IATYN_1,,Canada,Province - Alberta,,,58.219444,,-110.01111,Beatty River,,https://natural-resources.canada.ca/earth-sciences/geography/download-geographical-names-data/9245,,,,,
IAQOH_1,,Canada,Province - Alberta,,,50.3955556,,-114.4686111,Beaudry Lakes,,https://natural-resources.canada.ca/earth-sciences/geography/download-geographical-names-data/9245,,,,,
IATSB_1,,Canada,Province - Alberta,,,53.601389,,-113.50139,Beaumaris,,https://natural-resources.canada.ca/earth-sciences/geography/download-geographical-names-data/9245,,,,,
IADZF_1,,Canada,Province - Alberta,,,53.3525,,-113.4152778,Beaumont,,https://natural-resources.canada.ca/earth-sciences/geography/download-geographical-names-data/9245,,,,,
IADZG_1,,Canada,Province - Alberta,,,51.2161111,,-114.6127778,Beaupré Creek,,https://natural-resources.canada.ca/earth-sciences/geography/download-geographical-names-data/9245,,,,,
IADZH_1,,Canada,Province - Alberta,,,51.2683333,,-114.6813889,Beaupré Hill,,https://natural-resources.canada.ca/earth-sciences/geography/download-geographical-names-data/9245,,,,,
IADZI_1,,Canada,Province - Alberta,,,51.239444400000004,,-114.6672222,Beaupré Lake,,https://natural-resources.canada.ca/earth-sciences/geography/download-geographical-names-data/9245,,,,,
IADZK_1,,Canada,Province - Alberta,,,52.3219444,,-117.3252778,Beauty Creek,,https://natural-resources.canada.ca/earth-sciences/geography/download-geographical-names-data/9245,,,,,
IADZL_1,,Canada,Province - Alberta,,,49.4086111,,-114.0997222,Beauvais Lake,,https://natural-resources.canada.ca/earth-sciences/geography/download-geographical-names-data/9245,,,,,
IAADM_1,,Canada,Province - Alberta,,,49.4141667,,-114.115,Beauvais Lake Provincial Park,,https://natural-resources.canada.ca/earth-sciences/geography/download-geographical-names-data/9245,,,,,
IADZM_1,,Canada,Province - Alberta,,,53.6588889,,-111.3661111,Beauvallon,,https://natural-resources.canada.ca/earth-sciences/geography/download-geographical-names-data/9245,,,,,
IASKZ_1,,Canada,Province - Alberta,,,53.6494444,,-111.3822222,Beauvallon Lake,,https://natural-resources.canada.ca/earth-sciences/geography/download-geographical-names-data/9245,,,,,
IADZN_1,,Canada,Province - Alberta,,,52.8830556,,-118.0597222,Beauvert Lake,,https://natural-resources.canada.ca/earth-sciences/geography/download-geographical-names-data/9245,,,,,
IASPA_1,,Canada,Province - Alberta,,,53.67,,-112.8386111,Beaver Bay,,https://natural-resources.canada.ca/earth-sciences/geography/download-geographical-names-data/9245,,,,,
IADZQ_1,,Canada,Province - Alberta,,,53.2041666,,-118.0663889,Beaver Bluffs,,https://natural-resources.canada.ca/earth-sciences/geography/download-geographical-names-data/9245,,,,,
IATWR_1,,Canada,Province - Alberta,,,53.2497222,,-112.185,Beaver County,,https://natural-resources.canada.ca/earth-sciences/geography/download-geographical-names-data/9245,,,,,
IADZR_1,,Canada,Province - Alberta,,,49.6294444,,-113.7,Beaver Creek,,https://natural-resources.canada.ca/earth-sciences/geography/download-geographical-names-data/9245,,,,,
IADZX_1,,Canada,Province - Alberta,,,54.3605555,,-110.2066667,Beaver Crossing,,https://natural-resources.canada.ca/earth-sciences/geography/download-geographical-names-data/9245,,,,,
IAEAG_1,,Canada,Province - Alberta,,,52.6180556,,-116.3388889,Beaver Flat,,https://natural-resources.canada.ca/earth-sciences/geography/download-geographical-names-data/9245,,,,,
IAEAL_1,,Canada,Province - Alberta,,,59.0455555,,-113.1611111,Beaver Indian River,,https://natural-resources.canada.ca/earth-sciences/geography/download-geographical-names-data/9245,,,,,
IAEAQ_1,,Canada,Province - Alberta,,,52.8675,,-117.7247222,Beaver Lake,,https://natural-resources.canada.ca/earth-sciences/geography/download-geographical-names-data/9245,,,,,
IAUDN_1,,Canada,Province - Alberta,,,54.6686111,,-111.8713889,Beaver Lake 131,,https://natural-resources.canada.ca/earth-sciences/geography/download-geographical-names-data/9245,,,,,
IAEAW_1,,Canada,Province - Alberta,,,49.4566667,,-114.1972222,Beaver Mines,,https://natural-resources.canada.ca/earth-sciences/geography/download-geographical-names-data/9245,,,,,
IAEAX_1,,Canada,Province - Alberta,,,49.4838889,,-114.1430556,Beaver Mines Creek,,https://natural-resources.canada.ca/earth-sciences/geography/download-geographical-names-data/9245,,,,,
IAEAY_1,,Canada,Province - Alberta,,,49.3727777,,-114.2969444,Beaver Mines Lake,,https://natural-resources.canada.ca/earth-sciences/geography/download-geographical-names-data/9245,,,,,
IAUCL_1,,Canada,Province - Alberta,,,58.4358333,,-115.7425,Beaver Ranch 163,,https://natural-resources.canada.ca/earth-sciences/geography/download-geographical-names-data/9245,,,,,
IZAAB_1,,Canada,Province - Alberta,,,58.4644644,,-115.7172773,Beaver Ranch 163a,,https://natural-resources.canada.ca/earth-sciences/geography/download-geographical-names-data/9245,,,,,
IZAAC_1,,Canada,Province - Alberta,,,58.5258813,,-115.7916617,Beaver Ranch 163b,,https://natural-resources.canada.ca/earth-sciences/geography/download-geographical-names-data/9245,,,,,
IAEAZ_1,,Canada,Province - Alberta,,,58.4397222,,-115.5744444,Beaver Ranch Creek,,https://natural-resources.canada.ca/earth-sciences/geography/download-geographical-names-data/9245,,,,,
IAEBB_1,,Canada,Province - Alberta,,,54.37,,-110.2661111,Beaver River,,https://natural-resources.canada.ca/earth-sciences/geography/download-geographical-names-data/9245,,,,,
IADZY_1,,Canada,Province - Alberta,,,54.2013889,,-110.3080556,Beaverdam,,https://natural-resources.canada.ca/earth-sciences/geography/download-geographical-names-data/9245,,,,,
IAQSF_1,,Canada,Province - Alberta,,,51.5569445,,-114.3286111,Beaverdam Creek,,https://natural-resources.canada.ca/earth-sciences/geography/download-geographical-names-data/9245,,,,,
IAEAF_1,,Canada,Province - Alberta,,,49.0816667,,-113.6013889,Beaverdam Lake,,https://natural-resources.canada.ca/earth-sciences/geography/download-geographical-names-data/9245,,,,,
IAAUK_1,,Canada,Province - Alberta,,,53.5766667,,-119.8888889,Beaverdam Pass,,https://natural-resources.canada.ca/earth-sciences/geography/download-geographical-names-data/9245,,,,,
NPNHS_00001,,Canada,Parc national du Canada Banff,,,,,,Banff National Park ,,https://www.lunaris.ca/catalog/dd7e21b7-76e2-54c0-a7a6-497346d4f0bc?locale=en&q=National+Parks+and+National+Historic+Sites,,,National Park of Canada,,
IAEAH_1,,Canada,Province - Alberta,,,53.8038889,,-112.8627778,Beaverhill,,https://natural-resources.canada.ca/earth-sciences/geography/download-geographical-names-data/9245,,,,,
NPNHS_00106,,Canada,Lieu historique national du Canada du Musée-du-Parc-Banff,,,,,,Banff Park Museum,,https://www.lunaris.ca/catalog/dd7e21b7-76e2-54c0-a7a6-497346d4f0bc?locale=en&q=National+Parks+and+National+Historic+Sites,,,National Historic Site of Canada,,
IAEAI_1,,Canada,Province - Alberta,,,53.8983333,,-112.95,Beaverhill Creek,,https://natural-resources.canada.ca/earth-sciences/geography/download-geographical-names-data/9245,,,,,
IAEAJ_1,,Canada,Province - Alberta,,,53.4525,,-112.5355556,Beaverhill Lake,,https://natural-resources.canada.ca/earth-sciences/geography/download-geographical-names-data/9245,,,,,
IAEAU_1,,Canada,Province - Alberta,,,55.2091667,,-119.4288889,Beaverlodge,,https://natural-resources.canada.ca/earth-sciences/geography/download-geographical-names-data/9245,,,,,
NPNHS_00169,,Canada,Sources thermales Upper Hot Springs de Banff,,,,,,Banff Upper Hot Springs,,https://www.lunaris.ca/catalog/dd7e21b7-76e2-54c0-a7a6-497346d4f0bc?locale=en&q=National+Parks+and+National+Historic+Sites,,,Hot Springs,,
IAEAV_1,,Canada,Province - Alberta,,,55.0547222,,-119.3608333,Beaverlodge River,,https://natural-resources.canada.ca/earth-sciences/geography/download-geographical-names-data/9245,,,,,
IAJAB_1,,Canada,Province - Alberta,,,58.15,,-120,Beaverskin Creek,,https://natural-resources.canada.ca/earth-sciences/geography/download-geographical-names-data/9245,,,,,
IAEBG_1,,Canada,Province - Alberta,,,55.3341666,,-119.6125,Beavertail Creek,,https://natural-resources.canada.ca/earth-sciences/geography/download-geographical-names-data/9245,,,,,
IAEBH_1,,Canada,Province - Alberta,,,49.115,,-113.4836111,Beazer,,https://natural-resources.canada.ca/earth-sciences/geography/download-geographical-names-data/9245,,,,,
IAEBJ_1,,Canada,Province - Alberta,,,49.1238889,,-113.4961111,Beazer Ridge,,https://natural-resources.canada.ca/earth-sciences/geography/download-geographical-names-data/9245,,,,,
IAEBK_1,,Canada,Province - Alberta,,,49.4916667,,-111.4375,Becker Coulee,,https://natural-resources.canada.ca/earth-sciences/geography/download-geographical-names-data/9245,,,,,
IAEBL_1,,Canada,Province - Alberta,,,51.1522223,,-114.04,Beddington,,https://natural-resources.canada.ca/earth-sciences/geography/download-geographical-names-data/9245,,,,,
IAEBN_1,,Canada,Province - Alberta,,,51.1416667,,-114.0408333,Beddington Creek,,https://natural-resources.canada.ca/earth-sciences/geography/download-geographical-names-data/9245,,,,,
IATLX_1,,Canada,Province - Alberta,,,51.129167,,-114.07917,Beddington Heights,,https://natural-resources.canada.ca/earth-sciences/geography/download-geographical-names-data/9245,,,,,
IAEBP_1,,Canada,Province - Alberta,,,58.3908333,,-116.9075,Bede Creek,,https://natural-resources.canada.ca/earth-sciences/geography/download-geographical-names-data/9245,,,,,
NPNHS_00170,,Canada,Lieu historique national du Canada du Ranch-Bar U,,,,,,Bar U Ranch,,https://www.lunaris.ca/catalog/dd7e21b7-76e2-54c0-a7a6-497346d4f0bc?locale=en&q=National+Parks+and+National+Historic+Sites,,,National Historic Site of Canada,,
IAEBS_1,,Canada,Province - Alberta,,,53.28,,-117.9388889,Bedson Ridge,,https://natural-resources.canada.ca/earth-sciences/geography/download-geographical-names-data/9245,,,,,
IATBW_1,,Canada,Province - Alberta,,,49.0319,,-113.6889,Beebe Flats,,https://natural-resources.canada.ca/earth-sciences/geography/download-geographical-names-data/9245,,,,,
IAEBV_1,,Canada,Province - Alberta,,,50.0566667,,-114.5919444,Beehive Creek,,https://natural-resources.canada.ca/earth-sciences/geography/download-geographical-names-data/9245,,,,,
IAEBW_1,,Canada,Province - Alberta,,,50.0655555,,-114.6622222,Beehive Mountain,,https://natural-resources.canada.ca/earth-sciences/geography/download-geographical-names-data/9245,,,,,
IAALA_1,,Canada,Province - Alberta,,,50.0638889,,-114.6758333,Beehive Pass,,https://natural-resources.canada.ca/earth-sciences/geography/download-geographical-names-data/9245,,,,,
IAEBY_1,,Canada,Province - Alberta,,,55.2763889,,-110.4275,Behan,,https://natural-resources.canada.ca/earth-sciences/geography/download-geographical-names-data/9245,,,,,
IAECA_1,,Canada,Province - Alberta,,,55.2861111,,-111.565,Behan Lake,,https://natural-resources.canada.ca/earth-sciences/geography/download-geographical-names-data/9245,,,,,
IAEBZ_1,,Canada,Province - Alberta,,,51.2641667,,-114.7161111,Behanhouse Creek,,https://natural-resources.canada.ca/earth-sciences/geography/download-geographical-names-data/9245,,,,,
IAECC_1,,Canada,Province - Alberta,,,51.385,,-113.536111,Beiseker,,https://natural-resources.canada.ca/earth-sciences/geography/download-geographical-names-data/9245,,,,,
IAECD_1,,Canada,Province - Alberta,,,51,,-114.08333,Bel-Aire,,https://natural-resources.canada.ca/earth-sciences/geography/download-geographical-names-data/9245,,,,,
IAECH_1,,Canada,Province - Alberta,,,50.7130555,,-115.3894444,Belgium Lake,,https://natural-resources.canada.ca/earth-sciences/geography/download-geographical-names-data/9245,,,,,
IAECI_1,,Canada,Province - Alberta,,,53.5,,-113.53333,Belgravia,,https://natural-resources.canada.ca/earth-sciences/geography/download-geographical-names-data/9245,,,,,
IAEDE_1,,Canada,Province - Alberta,,,53.6505555,,-114.0077778,Bell Lake,,https://natural-resources.canada.ca/earth-sciences/geography/download-geographical-names-data/9245,,,,,
IAECL_1,,Canada,Province - Alberta,,,53.566667,,-113.43333,Bellevue,,https://natural-resources.canada.ca/earth-sciences/geography/download-geographical-names-data/9245,,,,,
IAECN_1,,Canada,Province - Alberta,,,49.1197222,,-113.9180556,Bellevue Hill,,https://natural-resources.canada.ca/earth-sciences/geography/download-geographical-names-data/9245,,,,,
IAEDD_1,,Canada,Province - Alberta,,,54.1427778,,-112.1502778,Bellis,,https://natural-resources.canada.ca/earth-sciences/geography/download-geographical-names-data/9245,,,,,
IAEDG_1,,Canada,Province - Alberta,,,55.7538889,,-118.2333333,Belloy,,https://natural-resources.canada.ca/earth-sciences/geography/download-geographical-names-data/9245,,,,,
IAEDH_1,,Canada,Province - Alberta,,,55.7552778,,-118.2197222,Belloy Reservoir,,https://natural-resources.canada.ca/earth-sciences/geography/download-geographical-names-data/9245,,,,,
IAEDJ_1,,Canada,Province - Alberta,,,55.0941667,,-116.2566667,Bellrose Lake,,https://natural-resources.canada.ca/earth-sciences/geography/download-geographical-names-data/9245,,,,,
IAEDK_1,,Canada,Province - Alberta,,,52.5797222,,-111.5269444,Bellshill,,https://natural-resources.canada.ca/earth-sciences/geography/download-geographical-names-data/9245,,,,,
IARXF_1,,Canada,Province - Alberta,,,52.6058334,,-111.5638889,Bellshill Lake,,https://natural-resources.canada.ca/earth-sciences/geography/download-geographical-names-data/9245,,,,,
IAKEJ_1,,Canada,Province - Alberta,,,49.7686111,,-113.0358333,Belly River,,https://natural-resources.canada.ca/earth-sciences/geography/download-geographical-names-data/9245,,,,,
IATRL_1,,Canada,Province - Alberta,,,53.594444,,-113.39167,Belmont,,https://natural-resources.canada.ca/earth-sciences/geography/download-geographical-names-data/9245,,,,,
IBAMO_1,,Canada,Province - Alberta,,,50.955,,-114.9908333,Belmore Browne Peak,,https://natural-resources.canada.ca/earth-sciences/geography/download-geographical-names-data/9245,,,,,
IAEDP_1,,Canada,Province - Alberta,,,52.2097222,,-112.5791667,Beltz Lake,,https://natural-resources.canada.ca/earth-sciences/geography/download-geographical-names-data/9245,,,,,
IAEDQ_1,,Canada,Province - Alberta,,,53.6,,-113.43333,Belvedere,,https://natural-resources.canada.ca/earth-sciences/geography/download-geographical-names-data/9245,,,,,
IAEDS_1,,Canada,Province - Alberta,,,59.5144445,,-110.0394444,Belyea Lake,,https://natural-resources.canada.ca/earth-sciences/geography/download-geographical-names-data/9245,,,,,
IAEDU_1,,Canada,Province - Alberta,,,52.3077777,,-114.2783333,Benalto,,https://natural-resources.canada.ca/earth-sciences/geography/download-geographical-names-data/9245,,,,,
IAEDV_1,,Canada,Province - Alberta,,,51.1580556,,-113.8713889,Benaman Slough,,https://natural-resources.canada.ca/earth-sciences/geography/download-geographical-names-data/9245,,,,,
IAEDW_1,,Canada,Province - Alberta,,,54.0983333,,-116.5916667,Benbow,,https://natural-resources.canada.ca/earth-sciences/geography/download-geographical-names-data/9245,,,,,
IAAVB_1,,Canada,Province - Alberta,,,59.8152778,,-111.9661111,Bench Mark Creek,,https://natural-resources.canada.ca/earth-sciences/geography/download-geographical-names-data/9245,,,,,
IATCZ_1,,Canada,Province - Alberta,,,51.2841667,,-114.8044444,Benchlands,,https://natural-resources.canada.ca/earth-sciences/geography/download-geographical-names-data/9245,,,,,
IAEDX_1,,Canada,Province - Alberta,,,51.5338889,,-115.0644444,Benjamin Creek,,https://natural-resources.canada.ca/earth-sciences/geography/download-geographical-names-data/9245,,,,,
IAEDZ_1,,Canada,Province - Alberta,,,50.9588889,,-113.7966667,Bennett,,https://natural-resources.canada.ca/earth-sciences/geography/download-geographical-names-data/9245,,,,,
IAEEA_1,,Canada,Province - Alberta,,,53.53,,-112.9916667,Bennett Lake,,https://natural-resources.canada.ca/earth-sciences/geography/download-geographical-names-data/9245,,,,,
IAEEC_1,,Canada,Province - Alberta,,,52.655,,-118.2980556,Bennington Peak,,https://natural-resources.canada.ca/earth-sciences/geography/download-geographical-names-data/9245,,,,,
IAEED_1,,Canada,Province - Alberta,,,53.6677777,,-111.8752778,Bens Lake,,https://natural-resources.canada.ca/earth-sciences/geography/download-geographical-names-data/9245,,,,,
IAEEF_1,,Canada,Province - Alberta,,,52.4663889,,-114.0511111,Bentley,,https://natural-resources.canada.ca/earth-sciences/geography/download-geographical-names-data/9245,,,,,
IAEEG_1,,Canada,Province - Alberta,,,54.0455556,,-111.0541667,Bentley Lake,,https://natural-resources.canada.ca/earth-sciences/geography/download-geographical-names-data/9245,,,,,
IAEEJ_1,,Canada,Province - Alberta,,,51.3477778,,-110.3486111,Benton Station,,https://natural-resources.canada.ca/earth-sciences/geography/download-geographical-names-data/9245,,,,,
IAEEK_1,,Canada,Province - Alberta,,,51.7888889,,-114.8458333,Bentz Lake,,https://natural-resources.canada.ca/earth-sciences/geography/download-geographical-names-data/9245,,,,,
IBAMV_1,,Canada,Province - Alberta,,,52.6119444,,-113.465,Berdine Lake,,https://natural-resources.canada.ca/earth-sciences/geography/download-geographical-names-data/9245,,,,,
